{
"type": "FeatureCollection",
"name": "stations",
"crs": { "type": "name", "properties": { "name": "urn:ogc:def:crs:OGC:1.3:CRS84" } },
"features": [
{ "type": "Feature", "properties": { "X": 105.778854, "Y": 20.609243, "Name": "Bãi đỗ xe Nhà khách Minh Hoàng", "location": "Bến đò Yến Vỹ - Xóm 8, Thôn Yến Vỹ, Xã Hương Sơn, Huyện Mỹ Đức, Thành phố Trung ương Hà Nội", "time active": "24/7 • Công cộng", "Brand": ": VinFast", "status": ": Đang hoạt động", "Power": ": VinFast ✧ 60kW", "compatible": "VinFast" }, "geometry": { "type": "Point", "coordinates": [ 105.778854, 20.609243 ] } },
{ "type": "Feature", "properties": { "X": 105.800514, "Y": 20.609295, "Name": "Nhượng quyền LUX - Công ty TĐK", "location": "Thôn Tiên Mai, xã Hương Sơn, Huyện Mỹ Đức, Thành phố Trung ương Hà Nội", "time active": "24/7 • Công cộng", "Brand": ": VinFast", "status": ": Đang hoạt động", "Power": ": VinFast ✧ 60kW", "compatible": "VinFast" }, "geometry": { "type": "Point", "coordinates": [ 105.800514, 20.609295 ] } },
{ "type": "Feature", "properties": { "X": 105.689079, "Y": 20.624258, "Name": "NQ VinaCharger ĐINH NGỌC LONG", "location": "Đồi Dùng, An Phú, Huyện Mỹ Đức, Thành phố Trung ương Hà Nội", "time active": "24/7 • Công cộng", "Brand": ": VinFast", "status": ": Đang hoạt động", "Power": ": VinFast ✧ 120kW", "compatible": "VinFast" }, "geometry": { "type": "Point", "coordinates": [ 105.689079, 20.624258 ] } },
{ "type": "Feature", "properties": { "X": 105.783195, "Y": 20.627932, "Name": "NQ LUX HKD Đỗ Văn Xuân", "location": "Xóm 5, Thôn Đốc Tín, Huyện Mỹ Đức, Thành phố Trung ương Hà Nội", "time active": "24/7 • Công cộng", "Brand": ": VinFast", "status": ": Đang hoạt động", "Power": ": VinFast ✧ 60kW", "compatible": "VinFast" }, "geometry": { "type": "Point", "coordinates": [ 105.783195, 20.627932 ] } },
{ "type": "Feature", "properties": { "X": 105.763283, "Y": 20.6336, "Name": "NQ DIMEC Hải Ngân", "location": "Xã Hùng Tiến, Huyện Mỹ Đức, Thành phố Trung ương Hà Nội", "time active": "24/7 • Công cộng", "Brand": ": VinFast", "status": ": Đang hoạt động", "Power": ": VinFast ✧ 60kW", "compatible": "VinFast" }, "geometry": { "type": "Point", "coordinates": [ 105.763283, 20.6336 ] } },
{ "type": "Feature", "properties": { "X": 105.738197, "Y": 20.684477, "Name": "Nhượng quyền Công ty Phát triển xanh THT", "location": "huyện Mỹ Đức, Thành phố Hà Nội, Huyện Mỹ Đức, Thành phố Trung ương Hà Nội", "time active": "24/7 • Công cộng", "Brand": ": VinFast", "status": ": Đang hoạt động", "Power": ": VinFast ✧ 120kW, 60kW", "compatible": "VinFast" }, "geometry": { "type": "Point", "coordinates": [ 105.738197, 20.684477 ] } },
{ "type": "Feature", "properties": { "X": 105.911743, "Y": 20.684855, "Name": "Cửa hàng xăng dầu PVOIL Châu Can", "location": "Quốc lộ 1A, km42, xã Châu Can, Huyện Phú Xuyên, Thành phố Trung ương Hà Nội", "time active": "24/7 • Công cộng", "Brand": ": VinFast", "status": ": Đang hoạt động", "Power": ": VinFast ✧ 60kW", "compatible": "VinFast" }, "geometry": { "type": "Point", "coordinates": [ 105.911743, 20.684855 ] } },
{ "type": "Feature", "properties": { "X": 105.813972, "Y": 20.687395, "Name": "NQ DIMEC LUX Trạm sạc Hòa Lâm", "location": "Đường tỉnh lộ 426, Thôn Trạch Bái, Huyện Ứng Hòa, Thành phố Trung ương Hà Nội", "time active": "24/7 • Công cộng", "Brand": ": VinFast", "status": ": Đang hoạt động", "Power": ": VinFast ✧ 120kW", "compatible": "VinFast" }, "geometry": { "type": "Point", "coordinates": [ 105.813972, 20.687395 ] } },
{ "type": "Feature", "properties": { "X": 105.749413, "Y": 20.689951, "Name": "TTTM Hiền Lương", "location": "TTTM Hiền Lương, thôn Đinh Xuyên, xã Hòa Nam, Huyện Ứng Hòa, Thành phố Trung ương Hà Nội", "time active": "24/7 • Công cộng", "Brand": ": VinFast", "status": ": Đang hoạt động", "Power": ": VinFast ✧ 60kW, 40kW, 3.5kW", "compatible": "VinFast" }, "geometry": { "type": "Point", "coordinates": [ 105.749413, 20.689951 ] } },
{ "type": "Feature", "properties": { "X": 105.698547, "Y": 20.690271, "Name": "Cửa hàng xăng dầu Quan Sơn", "location": "Xã Hợp Tiến, Huyện Mỹ Đức, Thành phố Trung ương Hà Nội", "time active": "24/7 • Công cộng", "Brand": ": VinFast", "status": ": Đang hoạt động", "Power": ": VinFast ✧ 60kW", "compatible": "VinFast" }, "geometry": { "type": "Point", "coordinates": [ 105.698547, 20.690271 ] } },
{ "type": "Feature", "properties": { "X": 105.989204, "Y": 20.69717, "Name": "Bãi đỗ xe Tổ đình Viên Minh (Chùa Ráng)", "location": "Chùa Ráng, Xã Quang Lãng, Huyện Phú Xuyên, Thành phố Trung ương Hà Nội", "time active": "06:00 - 20:00 • Công cộng", "Brand": ": VinFast", "status": ": Đang hoạt động", "Power": ": VinFast ✧ 30kW, 20kW, 3.5kW", "compatible": "VinFast" }, "geometry": { "type": "Point", "coordinates": [ 105.989204, 20.69717 ] } },
{ "type": "Feature", "properties": { "X": 105.7491, "Y": 20.699547, "Name": "NQ Fast+ HKD Nguyễn Hữu Quý", "location": "Thôn 4, xã Phù Lưu Tế, Huyện Mỹ Đức, Thành phố Trung ương Hà Nội", "time active": "24/7 • Công cộng", "Brand": ": VinFast", "status": ": Đang hoạt động", "Power": ": VinFast ✧ 60kW", "compatible": "VinFast" }, "geometry": { "type": "Point", "coordinates": [ 105.7491, 20.699547 ] } },
{ "type": "Feature", "properties": { "X": 105.952103, "Y": 20.7031, "Name": "NQ VinaCharger HKD Trần Trọng Linh", "location": "Số 25, đường 428, Thôn Nhân Sơn, Xã Tri Thủy, Huyện Phú Xuyên, Thành phố Trung ương Hà Nội", "time active": "24/7 • Công cộng", "Brand": ": VinFast", "status": ": Đang hoạt động", "Power": ": VinFast ✧ 120kW, 60kW", "compatible": "VinFast" }, "geometry": { "type": "Point", "coordinates": [ 105.952103, 20.7031 ] } },
{ "type": "Feature", "properties": { "X": 105.762123, "Y": 20.723009, "Name": "HỘ KINH DOANH PHẠM ĐÌNH BÔN - Đội 4, Thôn Thượng, Xã Hồng Sơn", "location": "Đội 4, Thôn Thượng, Xã Hồng Sơn, Huyện Mỹ Đức, Thành phố Trung ương Hà Nội", "time active": "24/7 • Công cộng", "Brand": ": VinFast", "status": ": Đang hoạt động", "Power": ": VinFast ✧ 120kW, 3.5kW", "compatible": "VinFast" }, "geometry": { "type": "Point", "coordinates": [ 105.762123, 20.723009 ] } },
{ "type": "Feature", "properties": { "X": 105.775497, "Y": 20.7274, "Name": "NQ HKD Trịnh Thị Thanh Hoa", "location": "169 Phố Nguyễn Thượng Hiền, Thị trấn Vân Đình, Huyện Ứng Hòa, Thành phố Trung ương Hà Nội", "time active": "24/7 • Công cộng", "Brand": ": VinFast", "status": ": Đang hoạt động", "Power": ": VinFast ✧ 120kW", "compatible": "VinFast" }, "geometry": { "type": "Point", "coordinates": [ 105.775497, 20.7274 ] } },
{ "type": "Feature", "properties": { "X": 105.772781, "Y": 20.731556, "Name": "Nhượng quyền LUX HKD Tạ Văn Cường", "location": "Huyện Ứng Hòa, Huyện Ứng Hòa, Thành phố Trung ương Hà Nội", "time active": "24/7 • Công cộng", "Brand": ": VinFast", "status": ": Đang hoạt động", "Power": ": VinFast ✧ 120kW", "compatible": "VinFast" }, "geometry": { "type": "Point", "coordinates": [ 105.772781, 20.731556 ] } },
{ "type": "Feature", "properties": { "X": 105.769409, "Y": 20.73488, "Name": "NQ Fast+ Công ty Smart Green", "location": "Bến xe Trung tâm thương mại Thị trấn Vân Đình, Huyện Ứng Hòa, Thành phố Trung ương Hà Nội", "time active": "24/7 • Công cộng", "Brand": ": VinFast", "status": ": Đang hoạt động", "Power": ": VinFast ✧ 120kW", "compatible": "VinFast" }, "geometry": { "type": "Point", "coordinates": [ 105.769409, 20.73488 ] } },
{ "type": "Feature", "properties": { "X": 105.768181, "Y": 20.765982, "Name": "NQ VinaCharger HKD Vũ Ánh Dương", "location": "91 phố Cầu Lão, Trường Thịnh, Huyện Ứng Hòa, Thành phố Trung ương Hà Nội", "time active": "24/7 • Công cộng", "Brand": ": VinFast", "status": ": Đang hoạt động", "Power": ": VinFast ✧ 60kW", "compatible": "VinFast" }, "geometry": { "type": "Point", "coordinates": [ 105.768181, 20.765982 ] } },
{ "type": "Feature", "properties": { "X": 105.897865, "Y": 20.77504, "Name": "NQ VIP Công ty Hoàng Tín", "location": "Đỗ Xá, Huyện Thường Tín, Thành phố Trung ương Hà Nội", "time active": "24/7 • Công cộng", "Brand": ": VinFast", "status": ": Đang hoạt động", "Power": ": VinFast ✧ 150kW, 120kW", "compatible": "VinFast" }, "geometry": { "type": "Point", "coordinates": [ 105.897865, 20.77504 ] } },
{ "type": "Feature", "properties": { "X": 105.777245, "Y": 20.784159, "Name": "Nhượng quyền VinaCharger HKD Nguyễn Bá Sơn", "location": "huyện Ứng Hòa, Hà Nội, Huyện Ứng Hòa, Thành phố Trung ương Hà Nội", "time active": "24/7 • Công cộng", "Brand": ": VinFast", "status": ": Đang hoạt động", "Power": ": VinFast ✧ 120kW", "compatible": "VinFast" }, "geometry": { "type": "Point", "coordinates": [ 105.777245, 20.784159 ] } },
{ "type": "Feature", "properties": { "X": 105.919281, "Y": 20.785429, "Name": "Nhượng quyền - Hộ kinh doanh Hà Thị Xuân Thành", "location": "Huyện Phú Xuyên, Huyện Phú Xuyên, Thành phố Trung ương Hà Nội", "time active": "24/7 • Công cộng", "Brand": ": VinFast", "status": ": Đang hoạt động", "Power": ": VinFast ✧ 120kW, 60kW", "compatible": "VinFast" }, "geometry": { "type": "Point", "coordinates": [ 105.919281, 20.785429 ] } },
{ "type": "Feature", "properties": { "X": 105.67617, "Y": 20.789536, "Name": "NQ VinaCharger HKD NGUYỄN VĂN VĨ", "location": "Thôn Nội, Xã Thượng Lâm, Huyện Mỹ Đức, Thành phố Trung ương Hà Nội", "time active": "24/7 • Công cộng", "Brand": ": VinFast", "status": ": Đang hoạt động", "Power": ": VinFast ✧ 60kW", "compatible": "VinFast" }, "geometry": { "type": "Point", "coordinates": [ 105.67617, 20.789536 ] } },
{ "type": "Feature", "properties": { "X": 105.682877, "Y": 20.798307, "Name": "Bãi đỗ xe tư nhân Nguyễn Thành Giang", "location": "xã Thượng Lâm, Mỹ Đức, Huyện Mỹ Đức, Thành phố Trung ương Hà Nội", "time active": "24/7 • Công cộng", "Brand": ": VinFast", "status": ": Đang hoạt động", "Power": ": VinFast ✧ 60kW", "compatible": "VinFast" }, "geometry": { "type": "Point", "coordinates": [ 105.682877, 20.798307 ] } },
{ "type": "Feature", "properties": { "X": 105.645004, "Y": 20.801313, "Name": "Cửa hàng xăng dầu Petrolimex HSB Số 25", "location": "Đường Hồ Chí Minh, Thôn Tân Lập, Xã Trần Phú, Huyện Chương Mỹ, Thành phố Trung ương Hà Nội", "time active": "24/7 • Công cộng", "Brand": ": VinFast", "status": ": Đang hoạt động", "Power": ": VinFast ✧ 60kW", "compatible": "VinFast" }, "geometry": { "type": "Point", "coordinates": [ 105.645004, 20.801313 ] } },
{ "type": "Feature", "properties": { "X": 105.78569, "Y": 20.801723, "Name": "Trạm sạc nhượng quyền APOLLO 1 ĐỖ TRUNG DŨNG", "location": "Hoàng Trung, xã Hồng Dương, Huyện Thanh Oai, Thành phố Trung ương Hà Nội", "time active": "24/7 • Công cộng", "Brand": ": VinFast", "status": ": Đang hoạt động", "Power": ": VinFast ✧ 30kW", "compatible": "VinFast" }, "geometry": { "type": "Point", "coordinates": [ 105.78569, 20.801723 ] } },
{ "type": "Feature", "properties": { "X": 105.79081, "Y": 20.801847, "Name": "NQ Fast+  APOLLO HKD Đỗ Trung Dũng", "location": "Hoàng Trung - Hồng Dương - Thanh Oai, Huyện Thanh Oai, Thành phố Trung ương Hà Nội", "time active": "24/7 • Công cộng", "Brand": ": VinFast", "status": ": Đang hoạt động", "Power": ": VinFast ✧ 60kW", "compatible": "VinFast" }, "geometry": { "type": "Point", "coordinates": [ 105.79081, 20.801847 ] } },
{ "type": "Feature", "properties": { "X": 105.77597, "Y": 20.807352, "Name": "Nhượng quyền Standard - Tư nhân Lê Văn Phúc", "location": "Huyện Thanh Oai, Huyện Thanh Oai, Thành phố Trung ương Hà Nội", "time active": "24/7 • Công cộng", "Brand": ": VinFast", "status": ": Đang hoạt động", "Power": ": VinFast ✧ 30kW", "compatible": "VinFast" }, "geometry": { "type": "Point", "coordinates": [ 105.77597, 20.807352 ] } },
{ "type": "Feature", "properties": { "X": 105.678665, "Y": 20.810089, "Name": "Nhượng quyền Fast+ HKD Trần Văn Tâm", "location": "Đồng Tâm, Mỹ Đức, Hà Nội, Huyện Mỹ Đức, Thành phố Trung ương Hà Nội", "time active": "24/7 • Công cộng", "Brand": ": VinFast", "status": ": Đang hoạt động", "Power": ": VinFast ✧ 120kW, 60kW", "compatible": "VinFast" }, "geometry": { "type": "Point", "coordinates": [ 105.678665, 20.810089 ] } },
{ "type": "Feature", "properties": { "X": 105.776222, "Y": 20.811724, "Name": "NQ-Hộ kinh doanh Nguyễn Duy Long", "location": "xã Dân Hòa, Thanh Oai,  Hà Nội, Huyện Thanh Oai, Thành phố Trung ương Hà Nội", "time active": "24/7 • Công cộng", "Brand": ": VinFast", "status": ": Đang hoạt động", "Power": ": VinFast ✧ 60kW, 3.5kW", "compatible": "VinFast" }, "geometry": { "type": "Point", "coordinates": [ 105.776222, 20.811724 ] } },
{ "type": "Feature", "properties": { "X": 105.64418, "Y": 20.817221, "Name": "CÔNG TY TNHH MỘT THÀNH VIÊN HUY HOÀNG, xã Trần Phú, Thôn Đá Vôi, Hà Nội", "location": "xã Trần Phú,  Chương Mỹ, Hà Nội, Huyện Chương Mỹ, Thành phố Trung ương Hà Nội", "time active": "24/7 • Công cộng", "Brand": ": VinFast", "status": ": Đang hoạt động", "Power": ": VinFast ✧ 120kW, 60kW, 3.5kW", "compatible": "VinFast" }, "geometry": { "type": "Point", "coordinates": [ 105.64418, 20.817221 ] } },
{ "type": "Feature", "properties": { "X": 105.877365, "Y": 20.831703, "Name": "Tư Nhân Nguyễn Trịnh Tiến Đức, Phố Chợ Cầu, Thắng Lợi, THường Tín, Hà Nội", "location": "Phố Chợ Cầu, Thắng Lợi, THường Tín, Hà Nội, Huyện Thường Tín, Thành phố Trung ương Hà Nội", "time active": "24/7 • Công cộng", "Brand": ": VinFast", "status": ": Đang hoạt động", "Power": ": VinFast ✧ 30kW", "compatible": "VinFast" }, "geometry": { "type": "Point", "coordinates": [ 105.877365, 20.831703 ] } },
{ "type": "Feature", "properties": { "X": 105.639183, "Y": 20.84009, "Name": "Cửa hàng xăng dầu Petrolimex HSB Số 33", "location": "Thôn Cầu Tây, Xã Hữu Văn, Huyện Chương Mỹ, Thành phố Trung ương Hà Nội", "time active": "24/7 • Công cộng", "Brand": ": VinFast", "status": ": Đang hoạt động", "Power": ": VinFast ✧ 180kW, 60kW", "compatible": "VinFast" }, "geometry": { "type": "Point", "coordinates": [ 105.639183, 20.84009 ] } },
{ "type": "Feature", "properties": { "X": 105.625832, "Y": 20.847311, "Name": "Công ty  Nguyên Khánh - Thôn Văn Phú, Xã Trần Phú, Hà Nội", "location": "Thôn Văn Phú, Xã Trần Phú, Huyện Chương Mỹ, Thành phố Trung ương Hà Nội", "time active": "24/7 • Công cộng", "Brand": ": VinFast", "status": ": Đang hoạt động", "Power": ": VinFast ✧ 120kW, 3.5kW", "compatible": "VinFast" }, "geometry": { "type": "Point", "coordinates": [ 105.625832, 20.847311 ] } },
{ "type": "Feature", "properties": { "X": 105.606285, "Y": 20.851648, "Name": "NQ Cty SXKD và XNK THF", "location": "VJ24+MG7, Đ. Hồ Chí Minh, Tân Tiến, Huyện Chương Mỹ, Thành phố Trung ương Hà Nội", "time active": "24/7 • Công cộng", "Brand": ": VinFast", "status": ": Đang hoạt động", "Power": ": VinFast ✧ 120kW, 60kW, 3.5kW", "compatible": "VinFast" }, "geometry": { "type": "Point", "coordinates": [ 105.606285, 20.851648 ] } },
{ "type": "Feature", "properties": { "X": 105.869469, "Y": 20.857622, "Name": "Bãi đỗ xe Trạm đăng kiểm 29.15D", "location": "Quốc lộ 1A, km21, xã Hà Hồi, Huyện Thường Tín, Thành phố Trung ương Hà Nội", "time active": "24/7 • Công cộng", "Brand": ": VinFast", "status": ": Đang hoạt động", "Power": ": VinFast ✧ 250kW, 60kW", "compatible": "VinFast" }, "geometry": { "type": "Point", "coordinates": [ 105.869469, 20.857622 ] } },
{ "type": "Feature", "properties": { "X": 105.580544, "Y": 20.862192, "Name": "NQ LUX Cty Cát Thành", "location": "Đường HCM- số 51 tổ 6, Xuân Sen, Huyện Chương Mỹ, Thành phố Trung ương Hà Nội", "time active": "24/7 • Công cộng", "Brand": ": VinFast", "status": ": Đang hoạt động", "Power": ": VinFast ✧ 120kW, 60kW", "compatible": "VinFast" }, "geometry": { "type": "Point", "coordinates": [ 105.580544, 20.862192 ] } },
{ "type": "Feature", "properties": { "X": 105.5784, "Y": 20.867001, "Name": "Bãi đỗ xe tư nhân Nguyễn Xuân Dương", "location": "Thôn Xuân Sen, xã Thủy Xuân Tiên, Huyện Chương Mỹ, Thành phố Trung ương Hà Nội", "time active": "24/7 • Công cộng", "Brand": ": VinFast", "status": ": Đang hoạt động", "Power": ": VinFast ✧ 60kW", "compatible": "VinFast" }, "geometry": { "type": "Point", "coordinates": [ 105.5784, 20.867001 ] } },
{ "type": "Feature", "properties": { "X": 105.844002, "Y": 20.867109, "Name": "HTX rau sạch Thanh Bình - Đường Nam Bình , xã Thường Tín , Tp Hà Nội", "location": "Thị trấn Thường Tín, Huyện Thường Tín, Thành phố Trung ương Hà Nội", "time active": "24/7 • Công cộng", "Brand": ": VinFast", "status": ": Đang hoạt động", "Power": ": VinFast ✧ 120kW, 3.5kW", "compatible": "VinFast" }, "geometry": { "type": "Point", "coordinates": [ 105.844002, 20.867109 ] } },
{ "type": "Feature", "properties": { "X": 105.881203, "Y": 20.869301, "Name": "NQ VIP Việt Phú 02", "location": "Thôn Khê hồi, xã Hà Hồi, Huyện Thường Tín, Thành phố Trung ương Hà Nội", "time active": "24/7 • Công cộng", "Brand": ": VinFast", "status": ": Đang hoạt động", "Power": ": VinFast ✧ 120kW, 60kW", "compatible": "VinFast" }, "geometry": { "type": "Point", "coordinates": [ 105.881203, 20.869301 ] } },
{ "type": "Feature", "properties": { "X": 105.699905, "Y": 20.869787, "Name": "Nhượng quyền - Hộ kinh doanh Lương Viết Hán", "location": "Xóm Nội, Thôn Đạo Ngạn, Xã Hợp Đồng, Huyện Chương Mỹ, Thành phố Trung ương Hà Nội", "time active": "24/7 • Công cộng", "Brand": ": VinFast", "status": ": Đang hoạt động", "Power": ": VinFast ✧ 60kW, 30kW", "compatible": "VinFast" }, "geometry": { "type": "Point", "coordinates": [ 105.699905, 20.869787 ] } },
{ "type": "Feature", "properties": { "X": 105.761147, "Y": 20.877703, "Name": "Tư Nhân Đặng Văn Phương,  Số 489, km 8, quốc lộ 21B, xã Bình Minh, Hà Nội", "location": "Số 489, km 8, quốc lộ 21B, xã Bình Minh, Hà Nội, Huyện Thanh Oai, Thành phố Trung ương Hà Nội", "time active": "24/7 • Công cộng", "Brand": ": VinFast", "status": ": Đang hoạt động", "Power": ": VinFast ✧ 30kW", "compatible": "VinFast" }, "geometry": { "type": "Point", "coordinates": [ 105.761147, 20.877703 ] } },
{ "type": "Feature", "properties": { "X": 105.796211, "Y": 20.888426, "Name": "Cửa hàng xăng dầu Tam Hưng", "location": "Khu Quốc 3, thôn Song Khê, Xã Tam Hưng, Huyện Thanh Oai, Thành phố Trung ương Hà Nội", "time active": "24/7 • Công cộng", "Brand": ": VinFast", "status": ": Đang bận", "Power": ": VinFast ✧ 150kW, 60kW", "compatible": "VinFast" }, "geometry": { "type": "Point", "coordinates": [ 105.796211, 20.888426 ] } },
{ "type": "Feature", "properties": { "X": 105.763313, "Y": 20.88859, "Name": "Công tyTM&XD Hưng Hà, Xóm chợ Bình Đà, Thị trấn Kim Bài", "location": "VQQ7+FCJ, Xóm chợ Bình Đà, Huyện Thanh Oai, Thành phố Trung ương Hà Nội", "time active": "24/7 • Công cộng", "Brand": ": VinFast", "status": ": Đang hoạt động", "Power": ": VinFast ✧ 120kW", "compatible": "VinFast" }, "geometry": { "type": "Point", "coordinates": [ 105.763313, 20.88859 ] } },
{ "type": "Feature", "properties": { "X": 105.857529, "Y": 20.889902, "Name": "Nhượng quyền Luxury - Công ty Phương Đông", "location": "Huyện Thường Tín, Huyện Thường Tín, Thành phố Trung ương Hà Nội", "time active": "24/7 • Công cộng", "Brand": ": VinFast", "status": ": Đang hoạt động", "Power": ": VinFast ✧ 120kW, 60kW", "compatible": "VinFast" }, "geometry": { "type": "Point", "coordinates": [ 105.857529, 20.889902 ] } },
{ "type": "Feature", "properties": { "X": 105.673622, "Y": 20.893351, "Name": "Cửa hàng xăng dầu Bảo Tụ", "location": "Thôn Tân Long, Xã Tốt Động, Huyện Chương Mỹ, Thành phố Trung ương Hà Nội", "time active": "24/7 • Công cộng", "Brand": ": VinFast", "status": ": Đang hoạt động", "Power": ": VinFast ✧ 60kW", "compatible": "VinFast" }, "geometry": { "type": "Point", "coordinates": [ 105.673622, 20.893351 ] } },
{ "type": "Feature", "properties": { "X": 105.580704, "Y": 20.89451, "Name": "NQ CÔNG TY CỔ PHẦN XÂY DỰNG GIAO THÔNG HÙNG ANH", "location": "TT Xuân Mai, Huyện Chương Mỹ, Thành phố Trung ương Hà Nội", "time active": "24/7 • Công cộng", "Brand": ": VinFast", "status": ": Đang hoạt động", "Power": ": VinFast ✧ 120kW, 60kW", "compatible": "VinFast" }, "geometry": { "type": "Point", "coordinates": [ 105.580704, 20.89451 ] } },
{ "type": "Feature", "properties": { "X": 105.580879, "Y": 20.896292, "Name": "Nhượng quyền VinaCharger VF Xuân Mai", "location": "Huyện Chương Mỹ, Hà Nội, Huyện Chương Mỹ, Thành phố Trung ương Hà Nội", "time active": "24/7 • Công cộng", "Brand": ": VinFast", "status": ": Đang hoạt động", "Power": ": VinFast ✧ 120kW, 60kW, 3.5kW", "compatible": "VinFast" }, "geometry": { "type": "Point", "coordinates": [ 105.580879, 20.896292 ] } },
{ "type": "Feature", "properties": { "X": 105.577904, "Y": 20.8972, "Name": "NQ VinaCharger HKD Nguyễn Văn Đoàn XMHN", "location": "Số 1, Tổ 3, TDP Tân Bình, Thị Trấn Xuân Mai, Huyện Chương Mỹ, Thành phố Trung ương Hà Nội", "time active": "24/7 • Công cộng", "Brand": ": VinFast", "status": ": Đang hoạt động", "Power": ": VinFast ✧ 120kW", "compatible": "VinFast" }, "geometry": { "type": "Point", "coordinates": [ 105.577904, 20.8972 ] } },
{ "type": "Feature", "properties": { "X": 105.867111, "Y": 20.90064, "Name": "Nhượng quyền - Công ty Phúc Hưng", "location": "Đường Tràng Hạ, Thôn Hạ Thái, Xã Duyên Hạ, Huyện Thường Tín, Thành phố Trung ương Hà Nội", "time active": "24/7 • Công cộng", "Brand": ": VinFast", "status": ": Đang hoạt động", "Power": ": VinFast ✧ 60kW", "compatible": "VinFast" }, "geometry": { "type": "Point", "coordinates": [ 105.867111, 20.90064 ] } },
{ "type": "Feature", "properties": { "X": 105.591141, "Y": 20.906683, "Name": "NQ DIMEC STD HKD Tống Nguyên Được", "location": "Tỉnh lộ 412B, Thị trấn Xuân Mai, Huyện Chương Mỹ, Thành phố Trung ương Hà Nội", "time active": "24/7 • Công cộng", "Brand": ": VinFast", "status": ": Đang hoạt động", "Power": ": VinFast ✧ 120kW, 60kW", "compatible": "VinFast" }, "geometry": { "type": "Point", "coordinates": [ 105.591141, 20.906683 ] } },
{ "type": "Feature", "properties": { "X": 105.873978, "Y": 20.912094, "Name": "CÔNG TY TNHH ĐT VÀ TM L&G - 164 đường Đông Mỹ,Thôn 1, Đông Mỹ, Thanh Trì, Hà Nội", "location": "Đông Mỹ, Thanh Trì, Hà Nội, Huyện Thanh Trì, Thành phố Trung ương Hà Nội", "time active": "24/7 • Công cộng", "Brand": ": VinFast", "status": ": Đang hoạt động", "Power": ": VinFast ✧ 120kW, 60kW, 3.5kW", "compatible": "VinFast" }, "geometry": { "type": "Point", "coordinates": [ 105.873978, 20.912094 ] } },
{ "type": "Feature", "properties": { "X": 105.8526, "Y": 20.91894, "Name": "NQ FAST+ KHÓA MINH KHAI", "location": "Km 14 Quốc lộ 1A, xã Ngọc Hồi, Huyện Thanh Trì, Thành phố Trung ương Hà Nội", "time active": "24/7 • Công cộng", "Brand": ": VinFast", "status": ": Đang hoạt động", "Power": ": VinFast ✧ 120kW", "compatible": "VinFast" }, "geometry": { "type": "Point", "coordinates": [ 105.8526, 20.91894 ] } },
{ "type": "Feature", "properties": { "X": 105.644646, "Y": 20.92013, "Name": "NQ GOEV HKD Hiền Nguyễn", "location": "Trường Yên, Huyện Chương Mỹ, Thành phố Trung ương Hà Nội", "time active": "24/7 • Công cộng", "Brand": ": VinFast", "status": ": Đang hoạt động", "Power": ": VinFast ✧ 120kW, 60kW, 3.5kW", "compatible": "VinFast" }, "geometry": { "type": "Point", "coordinates": [ 105.644646, 20.92013 ] } },
{ "type": "Feature", "properties": { "X": 105.702515, "Y": 20.921137, "Name": "Bãi đỗ xe Tĩnh", "location": "Thị trấn Chúc Sơn, Huyện Chương Mỹ, Thành phố Trung ương Hà Nội", "time active": "05:00 - 23:00 • Công cộng", "Brand": ": VinFast", "status": ": Đang hoạt động", "Power": ": VinFast ✧ 60kW", "compatible": "VinFast" }, "geometry": { "type": "Point", "coordinates": [ 105.702515, 20.921137 ] } },
{ "type": "Feature", "properties": { "X": 105.695213, "Y": 20.923637, "Name": "NQ HKD Lê Tuấn Kế", "location": "Cụm công nghiệp Ngọc Hòa,Chương Mỹ, Hà Nội, Huyện Chương Mỹ, Thành phố Trung ương Hà Nội", "time active": "24/7 • Công cộng", "Brand": ": VinFast", "status": ": Đang hoạt động", "Power": ": VinFast ✧ 120kW, 60kW", "compatible": "VinFast" }, "geometry": { "type": "Point", "coordinates": [ 105.695213, 20.923637 ] } },
{ "type": "Feature", "properties": { "X": 105.786491, "Y": 20.924143, "Name": "Chung cư khu đô thị Thanh Hà B1.4 HH02 tòa 2A-2B-2C", "location": "B1.4 HH02 tòa nhà Ban quản lý dự án, lô CT1 khu đô thị Thanh Hà B, Cienco 5, xã Cự Khê, Huyện Thanh Oai, Thành phố Trung ương Hà Nội", "time active": "24/7 • Công cộng", "Brand": ": VinFast", "status": ": Đang hoạt động", "Power": ": VinFast ✧ 20kW, 3.5kW", "compatible": "VinFast" }, "geometry": { "type": "Point", "coordinates": [ 105.786491, 20.924143 ] } },
{ "type": "Feature", "properties": { "X": 105.69812, "Y": 20.924444, "Name": "NQ FAST+ CÔNG TY TNHH MẠNH THẮNG", "location": "QL6, Thôn Cao Sơn, Huyện Chương Mỹ, Thành phố Trung ương Hà Nội", "time active": "24/7 • Công cộng", "Brand": ": VinFast", "status": ": Đang hoạt động", "Power": ": VinFast ✧ 120kW, 60kW, 3.5kW", "compatible": "VinFast" }, "geometry": { "type": "Point", "coordinates": [ 105.69812, 20.924444 ] } },
{ "type": "Feature", "properties": { "X": 105.646889, "Y": 20.990183, "Name": "Cửa hàng xăng dầu Hưng Thịnh", "location": "Đường tỉnh 419, Thị trấn Quốc Oai, Huyện Quốc Oai, Thành phố Trung ương Hà Nội", "time active": "24/7 • Công cộng", "Brand": ": VinFast", "status": ": Đang hoạt động", "Power": ": VinFast ✧ 180kW, 60kW", "compatible": "VinFast" }, "geometry": { "type": "Point", "coordinates": [ 105.646889, 20.990183 ] } },
{ "type": "Feature", "properties": { "X": 105.657982, "Y": 20.92728, "Name": "NQ Hộ Kinh Doanh Tuấn Hoa", "location": "km 27 QL6 thôn Nghĩa Hào xã Phú Nghĩa, Huyện Chương Mỹ, Thành phố Trung ương Hà Nội", "time active": "24/7 • Công cộng", "Brand": ": VinFast", "status": ": Đang hoạt động", "Power": ": VinFast ✧ 60kW, 11kW", "compatible": "VinFast" }, "geometry": { "type": "Point", "coordinates": [ 105.657982, 20.92728 ] } },
{ "type": "Feature", "properties": { "X": 105.681458, "Y": 20.928911, "Name": "NQ Tư Nhân  Cty Sơn Đông", "location": "Thôn Sơn Đồng, Xã Phù Nghĩa, Huyện Chương Mỹ,, Huyện Chương Mỹ, Thành phố Trung ương Hà Nội", "time active": "24/7 • Công cộng", "Brand": ": VinFast", "status": ": Đang hoạt động", "Power": ": VinFast ✧ 30kW", "compatible": "VinFast" }, "geometry": { "type": "Point", "coordinates": [ 105.681458, 20.928911 ] } },
{ "type": "Feature", "properties": { "X": 105.788475, "Y": 20.929384, "Name": "Chung cư khu đô thị Thanh Hà B1.4 HH02 tòa 1A-1B-1C", "location": "B1.4 HH02 tòa 1A-1B-1C, lô CT1 khu đô thị Thanh Hà B, Cienco 5, xã Cự Khê, Huyện Thanh Oai, Thành phố Trung ương Hà Nội", "time active": "24/7 • Công cộng", "Brand": ": VinFast", "status": ": Đang hoạt động", "Power": ": VinFast ✧ 20kW, 3.5kW", "compatible": "VinFast" }, "geometry": { "type": "Point", "coordinates": [ 105.788475, 20.929384 ] } },
{ "type": "Feature", "properties": { "X": 105.791222, "Y": 20.930792, "Name": "NQ Vinacharger CR ESTATE", "location": "xã Cự Khê,  huyện Thanh Oai, Hà Nội, Huyện Thanh Oai, Thành phố Trung ương Hà Nội", "time active": "24/7 • Công cộng", "Brand": ": VinFast", "status": ": Đang hoạt động", "Power": ": VinFast ✧ 120kW", "compatible": "VinFast" }, "geometry": { "type": "Point", "coordinates": [ 105.791222, 20.930792 ] } },
{ "type": "Feature", "properties": { "X": 105.790199, "Y": 20.93132, "Name": "Bãi đỗ xe khu liên hợp thị trấn Thanh Hà", "location": "Bãi đỗ xe khu liên hợp thị trấn Thanh Hà, tầng 1 tòa nhà Ban quản ý dự án, lô CT1 khu đô thị Thanh Hà B, Cienco 5, xã Cự Khê, Huyện Thanh Oai, Thành phố Trung ương Hà Nội", "time active": "24/7 • Công cộng", "Brand": ": VinFast", "status": ": Đang hoạt động", "Power": ": VinFast ✧ 30kW, 20kW, 3.5kW", "compatible": "VinFast" }, "geometry": { "type": "Point", "coordinates": [ 105.790199, 20.93132 ] } },
{ "type": "Feature", "properties": { "X": 105.568413, "Y": 20.93153, "Name": "Nhượng quyền Luxury - Mai Đức Việt", "location": "Đội 1, Thôn Yên Thái, Xã Đông Yên, Huyện Quốc Oai, Thành phố Trung ương Hà Nội", "time active": "24/7 • Công cộng", "Brand": ": VinFast", "status": ": Đang hoạt động", "Power": ": VinFast ✧ 120kW, 60kW", "compatible": "VinFast" }, "geometry": { "type": "Point", "coordinates": [ 105.568413, 20.93153 ] } },
{ "type": "Feature", "properties": { "X": 105.850433, "Y": 20.93215, "Name": "Chung cư Tecco Skyville", "location": "Hầm B2, chung cư Tecco Skyvile, đường Quang Lai, xã Tứ Hiệp, Huyện Thanh Trì, Thành phố Trung ương Hà Nội", "time active": "24/7 • Công cộng", "Brand": ": VinFast", "status": ": Đang hoạt động", "Power": ": VinFast ✧ 20kW, 3.5kW", "compatible": "VinFast" }, "geometry": { "type": "Point", "coordinates": [ 105.850433, 20.93215 ] } },
{ "type": "Feature", "properties": { "X": 105.851288, "Y": 20.93281, "Name": "Chung cư Tecco Garden", "location": "Hầm chung cư Tecco Garden, đường Quang Lai, xã Tứ Hiệp, Huyện Thanh Trì, Thành phố Trung ương Hà Nội", "time active": "24/7 • Công cộng", "Brand": ": VinFast", "status": ": Đang hoạt động", "Power": ": VinFast ✧ 20kW, 3.5kW", "compatible": "VinFast" }, "geometry": { "type": "Point", "coordinates": [ 105.851288, 20.93281 ] } },
{ "type": "Feature", "properties": { "X": 105.791992, "Y": 20.933769, "Name": "Chung cư khu đô thị Thanh Hà B1.4 HH01 tòa A-B-C", "location": "B1.4 HH01 tòa A-B-C, lô CT1 khu đô thị Thanh Hà B, Cienco 5, xã Cự Khê, Huyện Thanh Oai, Thành phố Trung ương Hà Nội", "time active": "24/7 • Công cộng", "Brand": ": VinFast", "status": ": Đang hoạt động", "Power": ": VinFast ✧ 20kW, 3.5kW", "compatible": "VinFast" }, "geometry": { "type": "Point", "coordinates": [ 105.791992, 20.933769 ] } },
{ "type": "Feature", "properties": { "X": 105.846901, "Y": 20.933786, "Name": "Nhượng quyền Luxury - Công ty EverSolar", "location": "Quốc lộ 1A, Xã Ngũ Hiệp, Huyện Thanh Trì, Thành phố Trung ương Hà Nội", "time active": "24/7 • Công cộng", "Brand": ": VinFast", "status": ": Đang hoạt động", "Power": ": VinFast ✧ 120kW, 60kW", "compatible": "VinFast" }, "geometry": { "type": "Point", "coordinates": [ 105.846901, 20.933786 ] } },
{ "type": "Feature", "properties": { "X": 105.785896, "Y": 20.936111, "Name": "Chung cư khu đô thị Thanh Hà B2.1 HH02 tòa D-E", "location": "B2.1 HH02 tòa D-E, lô CT1 khu đô thị Thanh Hà B, Cienco 5, xã Cự Khê, Huyện Thanh Oai, Thành phố Trung ương Hà Nội", "time active": "24/7 • Công cộng", "Brand": ": VinFast", "status": ": Đang hoạt động", "Power": ": VinFast ✧ 20kW, 3.5kW", "compatible": "VinFast" }, "geometry": { "type": "Point", "coordinates": [ 105.785896, 20.936111 ] } },
{ "type": "Feature", "properties": { "X": 105.786758, "Y": 20.936691, "Name": "Chung cư khu đô thị Thanh Hà B2.1 HH02 tòa A-B-C", "location": "B2.1 HH02 tòa A-B-C, lô CT1 khu đô thị Thanh Hà B, Cienco 5, xã Cự Khê, Huyện Thanh Oai, Thành phố Trung ương Hà Nội", "time active": "24/7 • Công cộng", "Brand": ": VinFast", "status": ": Đang hoạt động", "Power": ": VinFast ✧ 20kW, 3.5kW", "compatible": "VinFast" }, "geometry": { "type": "Point", "coordinates": [ 105.786758, 20.936691 ] } },
{ "type": "Feature", "properties": { "X": 105.8451065, "Y": 20.93769034, "Name": "EverCharge -Gara Auto Minh Lý", "location": "Km11+800 QL1A, Tứ Hiệp, Thanh Trì, Hà Nội.", "time active": "24/7 • Công cộng", "Brand": ": EverCharge", "status": ": Đang hoạt động", "Power": ": EverCharge ✧ 30kW", "compatible": "All" }, "geometry": { "type": "Point", "coordinates": [ 105.8451065, 20.93769034 ] } },
{ "type": "Feature", "properties": { "X": 105.559677, "Y": 20.93792, "Name": "NQ VinaCharger HKD ĐT Thanh", "location": "Đông Yên, Huyện Quốc Oai, Thành phố Trung ương Hà Nội", "time active": "24/7 • Công cộng", "Brand": ": VinFast", "status": ": Đang hoạt động", "Power": ": VinFast ✧ 120kW, 60kW", "compatible": "VinFast" }, "geometry": { "type": "Point", "coordinates": [ 105.559677, 20.93792 ] } },
{ "type": "Feature", "properties": { "X": 105.786629, "Y": 20.938202, "Name": "Chung cư khu đô thị Thanh Hà B2.1 HH03 tòa A-B-C", "location": "B2.1 HH03 tòa A-B-C, lô CT1 khu đô thị Thanh Hà B, Cienco 5, xã Cự Khê, Huyện Thanh Oai, Thành phố Trung ương Hà Nội", "time active": "24/7 • Công cộng", "Brand": ": VinFast", "status": ": Đang hoạt động", "Power": ": VinFast ✧ 20kW, 3.5kW", "compatible": "VinFast" }, "geometry": { "type": "Point", "coordinates": [ 105.786629, 20.938202 ] } },
{ "type": "Feature", "properties": { "X": 105.559799, "Y": 20.938894, "Name": "NQ LUX HKD Nguyễn Thị Trang Nhung", "location": "Quốc lộ 21A, Xóm 5, Thôn Long Phú, Xã Hòa Thạch, Huyện Quốc Oai, Thành phố Trung ương Hà Nội", "time active": "24/7 • Công cộng", "Brand": ": VinFast", "status": ": Đang hoạt động", "Power": ": VinFast ✧ 120kW, 60kW", "compatible": "VinFast" }, "geometry": { "type": "Point", "coordinates": [ 105.559799, 20.938894 ] } },
{ "type": "Feature", "properties": { "X": 105.788414, "Y": 20.939295, "Name": "Chung cư khu đô thị Thanh Hà B2.1 HH03 tòa D-E-F", "location": "B2.1 HH03 tòa D-E-F, lô CT1 khu đô thị Thanh Hà B, Cienco 5, xã Cự Khê, Huyện Thanh Oai, Thành phố Trung ương Hà Nội", "time active": "24/7 • Công cộng", "Brand": ": VinFast", "status": ": Đang hoạt động", "Power": ": VinFast ✧ 20kW, 3.5kW", "compatible": "VinFast" }, "geometry": { "type": "Point", "coordinates": [ 105.788414, 20.939295 ] } },
{ "type": "Feature", "properties": { "X": 105.553421, "Y": 20.94367, "Name": "NQ VinaCharger Chợ Long Phú", "location": "Chợ Long Phú, xã Hòa Thạch, Huyện Quốc Oai, Thành phố Trung ương Hà Nội", "time active": "24/7 • Công cộng", "Brand": ": VinFast", "status": ": Đang hoạt động", "Power": ": VinFast ✧ 120kW", "compatible": "VinFast" }, "geometry": { "type": "Point", "coordinates": [ 105.553421, 20.94367 ] } },
{ "type": "Feature", "properties": { "X": 105.828873, "Y": 20.946259, "Name": "Cửa hàng xăng dầu Petrolimex Số 73", "location": "Đường Phan Trọng Tuệ, Xã Tam Hiệp, Huyện Thanh Trì, Thành phố Trung ương Hà Nội", "time active": "05:00 - 23:00 • Công cộng", "Brand": ": VinFast", "status": ": Đang hoạt động", "Power": ": VinFast ✧ 180kW", "compatible": "VinFast" }, "geometry": { "type": "Point", "coordinates": [ 105.828873, 20.946259 ] } },
{ "type": "Feature", "properties": { "X": 105.853333, "Y": 20.948771, "Name": "Chung cư Hồng Hà Eco City CT04-05", "location": "CT4-05 chung cư Hồng Hà Eco City, Huyện Thanh Trì, Thành phố Trung ương Hà Nội", "time active": "24/7 • Công cộng", "Brand": ": VinFast", "status": ": Đang hoạt động", "Power": ": VinFast ✧ 30kW, 11kW", "compatible": "VinFast" }, "geometry": { "type": "Point", "coordinates": [ 105.853333, 20.948771 ] } },
{ "type": "Feature", "properties": { "X": 105.746414, "Y": 20.949081, "Name": "Bến xe Yên Nghĩa, phường Yên Nghĩa, Hà Nội", "location": "phường Yên Nghĩa, quận Hà Đông, Thành phố Hà Nội, Quận Hà Đông, Thành phố Trung ương Hà Nội", "time active": "24/7 • Công cộng", "Brand": ": VinFast", "status": ": Đang hoạt động", "Power": ": VinFast ✧ 120kW", "compatible": "VinFast" }, "geometry": { "type": "Point", "coordinates": [ 105.746414, 20.949081 ] } },
{ "type": "Feature", "properties": { "X": 105.819603, "Y": 20.950001, "Name": "NQ Cây Xăng Tam Hiệp", "location": "Tam Hiệp Thanh Trì Hà Nội, Huyện Thanh Trì, Thành phố Trung ương Hà Nội", "time active": "24/7 • Công cộng", "Brand": ": VinFast", "status": ": Đang hoạt động", "Power": ": VinFast ✧ 120kW, 3.5kW", "compatible": "VinFast" }, "geometry": { "type": "Point", "coordinates": [ 105.819603, 20.950001 ] } },
{ "type": "Feature", "properties": { "X": 105.853851, "Y": 20.950291, "Name": "Chung cư Hồng Hà Eco City CT11-12-13", "location": "Khu Đô Thị Hồng Hà Eco City, Huyện Thanh Trì, Thành phố Trung ương Hà Nội", "time active": "24/7 • Công cộng", "Brand": ": VinFast", "status": ": Đang hoạt động", "Power": ": VinFast ✧ 30kW, 11kW", "compatible": "VinFast" }, "geometry": { "type": "Point", "coordinates": [ 105.853851, 20.950291 ] } },
{ "type": "Feature", "properties": { "X": 105.771927, "Y": 20.951317, "Name": "NQ Tư Nhân LUX CÔNG TY PHÚC THỊNH", "location": "Số 12BT10, KĐT Phú Lương, Hà Đông, Hà Nội, Quận Hà Đông, Thành phố Trung ương Hà Nội", "time active": "24/7 • Công cộng", "Brand": ": VinFast", "status": ": Đang hoạt động", "Power": ": VinFast ✧ 30kW", "compatible": "VinFast" }, "geometry": { "type": "Point", "coordinates": [ 105.771927, 20.951317 ] } },
{ "type": "Feature", "properties": { "X": 105.817986, "Y": 20.952042, "Name": "Đại lý Ô tô VinFast Phan Trọng Tuệ", "location": "Số 443, Đường Phan Trọng Tuệ, Xã Thanh Liệt, Huyện Thanh Trì, Thành phố Trung ương Hà Nội", "time active": "24/7 • Công cộng", "Brand": ": VinFast", "status": ": Đang hoạt động", "Power": ": VinFast ✧ 250kW, 60kW", "compatible": "VinFast" }, "geometry": { "type": "Point", "coordinates": [ 105.817986, 20.952042 ] } },
{ "type": "Feature", "properties": { "X": 105.751556, "Y": 20.95261, "Name": "Đại lý Ô tô VinFast Hà Đông", "location": "Đại lý ô tô VinFast, Chevrolet, số 948, đường Quang Trung, phường Phú Lâm, Quận Hà Đông, Thành phố Trung ương Hà Nội", "time active": "24/7 • Công cộng", "Brand": ": VinFast", "status": ": Đang hoạt động", "Power": ": VinFast ✧ 30kW", "compatible": "VinFast" }, "geometry": { "type": "Point", "coordinates": [ 105.751556, 20.95261 ] } },
{ "type": "Feature", "properties": { "X": 105.818604, "Y": 20.9527, "Name": "VinFast Phan Trọng Tuệ Hà Nội - Km 2+500 đường Phan Trọng Tuệ", "location": "Km 2+500 đường Phan Trọng Tuệ, Huyện Thanh Trì, Thành phố Trung ương Hà Nội", "time active": "24/7 • Công cộng", "Brand": ": VinFast", "status": ": Đang hoạt động", "Power": ": VinFast ✧ 120kW, 60kW", "compatible": "VinFast" }, "geometry": { "type": "Point", "coordinates": [ 105.818604, 20.9527 ] } },
{ "type": "Feature", "properties": { "X": 105.814697, "Y": 20.9541, "Name": "Xí nghiệp Trung đại tu Cầu Bươu, 158 Phan Trọng Tuệ, Thanh Trì", "location": "158 Phan Trọng Tuệ, Thanh Trì, Huyện Thanh Trì, Thành phố Trung ương Hà Nội", "time active": "24/7 • Công cộng", "Brand": ": VinFast", "status": ": Đang hoạt động", "Power": ": VinFast ✧ 120kW, 60kW, 3.5kW", "compatible": "VinFast" }, "geometry": { "type": "Point", "coordinates": [ 105.814697, 20.9541 ] } },
{ "type": "Feature", "properties": { "X": 105.756248, "Y": 20.956715, "Name": "Chung cư Vinaconex 21", "location": "Chung cư Vinaconex 21, ngõ 804 Quang Trung, phường Phú La, Quận Hà Đông, Thành phố Trung ương Hà Nội", "time active": "24/7 • Công cộng", "Brand": ": VinFast", "status": ": Đang hoạt động", "Power": ": VinFast ✧ 30kW, 20kW, 3.5kW", "compatible": "VinFast" }, "geometry": { "type": "Point", "coordinates": [ 105.756248, 20.956715 ] } },
{ "type": "Feature", "properties": { "X": 105.712227, "Y": 20.957607, "Name": "Tư Nhân Nguyễn Văn Vĩnh, Thôn Độ Chàng, Xã Hưng Đạo, Hà Nội", "location": "Thôn Độ Chàng, Xã Hưng Đạo, Hà Nội, Huyện Quốc Oai, Thành phố Trung ương Hà Nội", "time active": "24/7 • Công cộng", "Brand": ": VinFast", "status": ": Đang hoạt động", "Power": ": VinFast ✧ 40kW", "compatible": "VinFast" }, "geometry": { "type": "Point", "coordinates": [ 105.712227, 20.957607 ] } },
{ "type": "Feature", "properties": { "X": 105.750473, "Y": 20.957958, "Name": "Nhượng quyền - Lốp Dân Chủ", "location": "Số 50, Đường Quyết Thắng, Phường Yên Nghĩa, Quận Hà Đông, Thành phố Trung ương Hà Nội", "time active": "24/7 • Công cộng", "Brand": ": VinFast", "status": ": Đang hoạt động", "Power": ": VinFast ✧ 120kW, 60kW", "compatible": "VinFast" }, "geometry": { "type": "Point", "coordinates": [ 105.750473, 20.957958 ] } },
{ "type": "Feature", "properties": { "X": 105.757362, "Y": 20.958418, "Name": "Trung tâm độ xe MT29 - Auto365 Hà Nội", "location": "43/5,ngõ 14 Quang Trung, Hà Đông", "time active": "24/7 • Công cộng", "Brand": ": EverCharge", "status": ": Đang hoạt động", "Power": ": EverCharge ✧ 22kW", "compatible": "All" }, "geometry": { "type": "Point", "coordinates": [ 105.757362, 20.958418 ] } },
{ "type": "Feature", "properties": { "X": 105.757324, "Y": 20.95846, "Name": "Nhượng quyền FAST+ AUTO 365 Hà Nội", "location": "Số 43/5 ngõ 14 đường Quang Trung, phường Phú La, quận Hà Đông, Hà Nội, Quận Hà Đông, Thành phố Trung ương Hà Nội", "time active": "24/7 • Công cộng", "Brand": ": VinFast", "status": ": Đang hoạt động", "Power": ": VinFast ✧ 40kW, 3.5kW", "compatible": "VinFast" }, "geometry": { "type": "Point", "coordinates": [ 105.757324, 20.95846 ] } },
{ "type": "Feature", "properties": { "X": 105.742393, "Y": 20.959986, "Name": "Chung cư Xuân Mai Complex tòa A-B-C-D-E", "location": "Bãi đỗ xe tầng hầm B2, tòa nhà A,B,C,D,E thuộc cụm chung cư HH2, khu đô thị mới Dương Nội, Quận Hà Đông, Thành phố Trung ương Hà Nội", "time active": "24/7 • Công cộng", "Brand": ": VinFast", "status": ": Đang hoạt động", "Power": ": VinFast ✧ 20kW, 3.5kW", "compatible": "VinFast" }, "geometry": { "type": "Point", "coordinates": [ 105.742393, 20.959986 ] } },
{ "type": "Feature", "properties": { "X": 105.843262, "Y": 20.960005, "Name": "Tư Nhân Nguyễn Minh, NV3 KĐT Rose Town, Số 79 Ngọc Hồi, Yên Sở", "location": "NV3 KĐT Rose Town, Số 79 Ngọc Hồi, Yên Sở, Quận Hoàng Mai, Thành phố Trung ương Hà Nội", "time active": "24/7 • Công cộng", "Brand": ": VinFast", "status": ": Đang hoạt động", "Power": ": VinFast ✧ 40kW", "compatible": "VinFast" }, "geometry": { "type": "Point", "coordinates": [ 105.843262, 20.960005 ] } },
{ "type": "Feature", "properties": { "X": 105.85968, "Y": 20.960697, "Name": "Gamuda City, bãi xe khu TTTM", "location": "Bãi xe khu TTTM, Gamuda City, quốc lộ 1A, phường Thịnh Liệt, Quận Hoàng Mai, Thành phố Trung ương Hà Nội", "time active": "24/7 • Công cộng", "Brand": ": VinFast", "status": ": Đang hoạt động", "Power": ": VinFast ✧ 30kW, 20kW, 3.5kW", "compatible": "VinFast" }, "geometry": { "type": "Point", "coordinates": [ 105.85968, 20.960697 ] } },
{ "type": "Feature", "properties": { "X": 105.740685, "Y": 20.960754, "Name": "Chung cư Xuân Mai Complex tòa F-G-H-K-L", "location": "Bãi đỗ xe tầng hầm B2, tòa nhà F,G,H,K,L thuộc cụm chung cư HH2, khu đô thị mới Dương Nội, Quận Hà Đông, Thành phố Trung ương Hà Nội", "time active": "24/7 • Công cộng", "Brand": ": VinFast", "status": ": Đang hoạt động", "Power": ": VinFast ✧ 20kW, 3.5kW", "compatible": "VinFast" }, "geometry": { "type": "Point", "coordinates": [ 105.740685, 20.960754 ] } },
{ "type": "Feature", "properties": { "X": 105.8027211, "Y": 20.9612489, "Name": "EBOOST - Nhà xe Thanh Bình", "location": "Số 64, KĐT mới Cầu Bươu, Thanh Liệt, Thanh Trì, Hà Nội", "time active": "24/7 • Công cộng", "Brand": ": EBOOSTCar", "status": ": Đang hoạt động", "Power": ": EBOOSTCar ✧ 7kW", "compatible": "All" }, "geometry": { "type": "Point", "coordinates": [ 105.8027211, 20.9612489 ] } },
{ "type": "Feature", "properties": { "X": 105.759644, "Y": 20.96262, "Name": "Khu đô thị ParkCity Clubhouse", "location": "Bãi gửi xe Clubhouse khu đô thị ParkCity, đường Lê Trọng Tấn, phường La Khê, Quận Hà Đông, Thành phố Trung ương Hà Nội", "time active": "06:00 - 22:00 • Công cộng", "Brand": ": VinFast", "status": ": Đang hoạt động", "Power": ": VinFast ✧ 20kW, 3.5kW", "compatible": "VinFast" }, "geometry": { "type": "Point", "coordinates": [ 105.759644, 20.96262 ] } },
{ "type": "Feature", "properties": { "X": 105.824356, "Y": 20.96291, "Name": "Bãi đỗ xe toà nhà Vinh Quang, số12, Linh Đàm, Hoàng Liệt, Hà Nội", "location": "Quận Hoàng Mai, thành phố Hà Nội, Quận Hoàng Mai, Thành phố Trung ương Hà Nội", "time active": "24/7 • Công cộng", "Brand": ": VinFast", "status": ": Đang hoạt động", "Power": ": VinFast ✧ 120kW, 60kW", "compatible": "VinFast" }, "geometry": { "type": "Point", "coordinates": [ 105.824356, 20.96291 ] } },
{ "type": "Feature", "properties": { "X": 105.734772, "Y": 20.963091, "Name": "NQ VinaCharger Cụm CN Đông La", "location": "Nhà điều hành cụm CN Đông La, xã Đông La, Huyện Hoài Đức, Thành phố Trung ương Hà Nội", "time active": "24/7 • Công cộng", "Brand": ": VinFast", "status": ": Đang hoạt động", "Power": ": VinFast ✧ 120kW, 60kW", "compatible": "VinFast" }, "geometry": { "type": "Point", "coordinates": [ 105.734772, 20.963091 ] } },
{ "type": "Feature", "properties": { "X": 105.822052, "Y": 20.96417, "Name": "Chung cư CT4A1 Tây Nam Linh Đàm", "location": "Chung cư CT4A1 Tây Nam Linh Đàm, phường Hoàng Liệt, Quận Hoàng Mai, Thành phố Trung ương Hà Nội", "time active": "24/7 • Công cộng", "Brand": ": VinFast", "status": ": Đang hoạt động", "Power": ": VinFast ✧ 20kW, 3.5kW", "compatible": "VinFast" }, "geometry": { "type": "Point", "coordinates": [ 105.822052, 20.96417 ] } },
{ "type": "Feature", "properties": { "X": 105.853188, "Y": 20.964708, "Name": "Gamuda City, bãi xe công viên Yên Sở", "location": "Gamuda City, bãi xe công viên Yên Sở, quốc lộ 1A, phường Thịnh Liệt, Quận Hoàng Mai, Thành phố Trung ương Hà Nội", "time active": "00:00 - 23:59 • Công cộng", "Brand": ": VinFast", "status": ": Đang hoạt động", "Power": ": VinFast ✧ 250kW, 60kW", "compatible": "VinFast" }, "geometry": { "type": "Point", "coordinates": [ 105.853188, 20.964708 ] } },
{ "type": "Feature", "properties": { "X": 105.7571678, "Y": 20.96608857, "Name": "Charge + Car The LINC - Park City Hanoi", "location": "165 đường Lê Trọng Tấn, La Khê, Hà Đông, TP. Hà Nội", "time active": "24/7 • Công cộng", "Brand": ": Charge+", "status": ": Đang hoạt động", "Power": ": Charge+ ✧ 120kW", "compatible": "All" }, "geometry": { "type": "Point", "coordinates": [ 105.7571678, 20.96608857 ] } },
{ "type": "Feature", "properties": { "X": 105.770187, "Y": 20.96682, "Name": "Chung cư Bình Vượng Tower", "location": "Hầm B2, chung cư Bình Vượng Tower, 200 Quang Trung, Quận Hà Đông, Thành phố Trung ương Hà Nội", "time active": "24/7 • Công cộng", "Brand": ": VinFast", "status": ": Đang hoạt động", "Power": ": VinFast ✧ 20kW", "compatible": "VinFast" }, "geometry": { "type": "Point", "coordinates": [ 105.770187, 20.96682 ] } },
{ "type": "Feature", "properties": { "X": 105.798981, "Y": 20.96689, "Name": "Trạm Tân Triều (Fast+)", "location": "Yên Xá ,Tân Triều , Huyện Thanh Trì, Thành phố Trung ương Hà Nội", "time active": "24/7 • Công cộng", "Brand": ": VinFast", "status": ": Đang hoạt động", "Power": ": VinFast ✧ 120kW, 60kW", "compatible": "VinFast" }, "geometry": { "type": "Point", "coordinates": [ 105.798981, 20.96689 ] } },
{ "type": "Feature", "properties": { "X": 105.877258, "Y": 20.967899, "Name": "Nhượng quyền Luxury - Công ty Ôtô Việt Phú", "location": "Quận Hoàng Mai, Quận Hoàng Mai, Thành phố Trung ương Hà Nội", "time active": "24/7 • Công cộng", "Brand": ": VinFast", "status": ": Đang hoạt động", "Power": ": VinFast ✧ 60kW", "compatible": "VinFast" }, "geometry": { "type": "Point", "coordinates": [ 105.877258, 20.967899 ] } },
{ "type": "Feature", "properties": { "X": 105.792679, "Y": 20.968115, "Name": "Mặt sau Chung cư CT1 Bệnh Viện 103", "location": "Mặt sau Chung cư CT1 Bệnh Viện 103, Khu đô thị Văn Quán, Nguyễn Khuyến, phường Văn Quán, Quận Hà Đông, Thành phố Trung ương Hà Nội", "time active": "24/7 • Công cộng", "Brand": ": VinFast", "status": ": Đang hoạt động", "Power": ": VinFast ✧ 20kW, 3.5kW", "compatible": "VinFast" }, "geometry": { "type": "Point", "coordinates": [ 105.792679, 20.968115 ] } },
{ "type": "Feature", "properties": { "X": 105.78817, "Y": 20.969584, "Name": "Nhượng quyền Sạc Nhanh 40kw DC Yên Phúc", "location": "31D2 Giãn dân Yên Phúc, Phường Phúc La, quận Hà Đông, Thành Phố Hà Nội, Quận Hà Đông, Thành phố Trung ương Hà Nội", "time active": "24/7 • Công cộng", "Brand": ": VinFast", "status": ": Đang hoạt động", "Power": ": VinFast ✧ 40kW", "compatible": "VinFast" }, "geometry": { "type": "Point", "coordinates": [ 105.78817, 20.969584 ] } },
{ "type": "Feature", "properties": { "X": 105.876785, "Y": 20.972294, "Name": "Bãi đỗ xe Gamuda Club House", "location": "Bãi đỗ xe Gamuda Club House khu đô thị Gamuda Garden, quốc lộ 1A, phường Thịnh Liệt, Quận Hoàng Mai, Thành phố Trung ương Hà Nội", "time active": "00:00 - 23:59 • Công cộng", "Brand": ": VinFast", "status": ": Đang hoạt động", "Power": ": VinFast ✧ 60kW, 40kW, 3.5kW", "compatible": "VinFast" }, "geometry": { "type": "Point", "coordinates": [ 105.876785, 20.972294 ] } },
{ "type": "Feature", "properties": { "X": 105.777496, "Y": 20.972666, "Name": "Bãi đỗ xe Công ty Sơn Hà", "location": "Số 8, đường Quang Trung, phường Quang Trung, Quận Hà Đông, Thành phố Trung ương Hà Nội", "time active": "24/7 • Công cộng", "Brand": ": VinFast", "status": ": Đang hoạt động", "Power": ": VinFast ✧ 250kW, 120kW, 60kW", "compatible": "VinFast" }, "geometry": { "type": "Point", "coordinates": [ 105.777496, 20.972666 ] } },
{ "type": "Feature", "properties": { "X": 105.838486, "Y": 20.972731, "Name": "Chung cư Eco Lake View HH2", "location": "Chung cư Eco Lake View, tòa HH2 Eco Lake View, Số 32, Đường Đại Từ, phường Đại Kim, Quận Hoàng Mai, Thành phố Trung ương Hà Nội", "time active": "24/7 • Công cộng", "Brand": ": VinFast", "status": ": Đang hoạt động", "Power": ": VinFast ✧ 20kW, 3.5kW", "compatible": "VinFast" }, "geometry": { "type": "Point", "coordinates": [ 105.838486, 20.972731 ] } },
{ "type": "Feature", "properties": { "X": 105.839233, "Y": 20.972742, "Name": "Chung cư Eco Lake View HH3", "location": "Hầm Chung cư Eco Lake View, tòa HH3 Eco Lake View, Số 32, Đường Đại Từ, phường Đại Kim, Quận Hoàng Mai, Thành phố Trung ương Hà Nội", "time active": "24/7 • Công cộng", "Brand": ": VinFast", "status": ": Đang hoạt động", "Power": ": VinFast ✧ 20kW, 3.5kW", "compatible": "VinFast" }, "geometry": { "type": "Point", "coordinates": [ 105.839233, 20.972742 ] } },
{ "type": "Feature", "properties": { "X": 105.879578, "Y": 20.973345, "Name": "Nhượng quyền VIP - Công ty Ô tô Việt Phú", "location": "Đường 1.1, KĐT Gamuda Gardens, phường Trần Phú, Quận Hoàng Mai, Thành phố Trung ương Hà Nội", "time active": "24/7 • Công cộng", "Brand": ": VinFast", "status": ": Đang hoạt động", "Power": ": VinFast ✧ 120kW, 60kW", "compatible": "VinFast" }, "geometry": { "type": "Point", "coordinates": [ 105.879578, 20.973345 ] } },
{ "type": "Feature", "properties": { "X": 105.838432, "Y": 20.973574, "Name": "Chung cư Eco Lake View HH1", "location": "Hầm Chung cư Eco Lake View, tòa HH1 Eco Lake View, Số 32, Đường Đại Từ, phường Đại Kim, Quận Hoàng Mai, Thành phố Trung ương Hà Nội", "time active": "24/7 • Công cộng", "Brand": ": VinFast", "status": ": Đang hoạt động", "Power": ": VinFast ✧ 40kW, 30kW, 3.5kW", "compatible": "VinFast" }, "geometry": { "type": "Point", "coordinates": [ 105.838432, 20.973574 ] } },
{ "type": "Feature", "properties": { "X": 105.669373, "Y": 20.974255, "Name": "Bãi đỗ xe tư nhân Đức Thị Hiền", "location": "Xóm Ngang, Thôn 1, Xã Cộng Hòa, Huyện Quốc Oai, Thành phố Trung ương Hà Nội", "time active": "24/7 • Công cộng", "Brand": ": VinFast", "status": ": Đang hoạt động", "Power": ": VinFast ✧ 80kW, 20kW", "compatible": "VinFast" }, "geometry": { "type": "Point", "coordinates": [ 105.669373, 20.974255 ] } },
{ "type": "Feature", "properties": { "X": 105.765762, "Y": 20.974957, "Name": "Nhượng quyền Nguyễn Chí Thanh", "location": "Số nhà 20 Liền kề 16, khu đô thị mới Văn Khê, phường La Khê, quận Hà Đông, Hà Nộ, Quận Hà Đông, Thành phố Trung ương Hà Nội", "time active": "24/7 • Công cộng", "Brand": ": VinFast", "status": ": Đang bận", "Power": ": VinFast ✧ 30kW", "compatible": "VinFast" }, "geometry": { "type": "Point", "coordinates": [ 105.765762, 20.974957 ] } },
{ "type": "Feature", "properties": { "X": 105.766808, "Y": 20.975779, "Name": "Tư Nhân  Nguyễn Lê Cảnh,số 1 Liền kề 7 Dọc Bún 1 La khê, phường Hà Đông, HN", "location": "số 1 Liền kề 7 Dọc Bún 1 La khê, phường Hà Đông, HN, Quận Hà Đông, Thành phố Trung ương Hà Nội", "time active": "24/7 • Công cộng", "Brand": ": VinFast", "status": ": Đang hoạt động", "Power": ": VinFast ✧ 30kW", "compatible": "VinFast" }, "geometry": { "type": "Point", "coordinates": [ 105.766808, 20.975779 ] } },
{ "type": "Feature", "properties": { "X": 105.882599, "Y": 20.976217, "Name": "Nhượng quyền Hoàng Đức Thắng", "location": "109 Ngõ 2 Tây Trà, phường Trần Phú, quận Hoàng Mai, Hà Nội, Quận Hoàng Mai, Thành phố Trung ương Hà Nội", "time active": "24/7 • Công cộng", "Brand": ": VinFast", "status": ": Đang hoạt động", "Power": ": VinFast ✧ 40kW", "compatible": "VinFast" }, "geometry": { "type": "Point", "coordinates": [ 105.882599, 20.976217 ] } },
{ "type": "Feature", "properties": { "X": 105.8423, "Y": 20.976358, "Name": "Bến xe đuôi cá - Số 785, Trương Định, Thịnh Liệt, Hoàng Mai", "location": "Số 785 Trương Định, Phường Thịnh Liệt, Quận Hoàng Mai, Thành phố Trung ương Hà Nội", "time active": "24/7 • Công cộng", "Brand": ": VinFast", "status": ": Đang hoạt động", "Power": ": VinFast ✧ 120kW", "compatible": "VinFast" }, "geometry": { "type": "Point", "coordinates": [ 105.8423, 20.976358 ] } },
{ "type": "Feature", "properties": { "X": 105.864098, "Y": 20.9792, "Name": "Khu cây xăng, Trung tâm đăng kiểm 2910D, Đền Lừ, Hoàng Văn Thụ, Hà Nội", "location": "1, Quận Hoàng Mai, Thành phố Trung ương Hà Nội", "time active": "24/7 • Công cộng", "Brand": ": VinFast", "status": ": Đang hoạt động", "Power": ": VinFast ✧ 120kW", "compatible": "VinFast" }, "geometry": { "type": "Point", "coordinates": [ 105.864098, 20.9792 ] } },
{ "type": "Feature", "properties": { "X": 105.820908, "Y": 20.979219, "Name": "Công ty Cổ phần Tập đoàn Tương Lai Việt - Số 256 Kim Giang, phường Định Công", "location": "256 Kim Giang, Phường Định Công, Quận Hoàng Mai, Thành phố Trung ương Hà Nội", "time active": "24/7 • Công cộng", "Brand": ": VinFast", "status": ": Đang hoạt động", "Power": ": VinFast ✧ 60kW, 20kW, 3.5kW", "compatible": "VinFast" }, "geometry": { "type": "Point", "coordinates": [ 105.820908, 20.979219 ] } },
{ "type": "Feature", "properties": { "X": 105.8414, "Y": 20.9795, "Name": "Cổng B2, bên trong Bến xe Giáp Bát, Hoàng Mai, Hà Nội", "location": "Cổng vào B2 (cổng sau), Bến xe Giáp Bát, Quận Hoàng Mai, Thành phố Trung ương Hà Nội", "time active": "24/7 • Công cộng", "Brand": ": VinFast", "status": ": Đang hoạt động", "Power": ": VinFast ✧ 120kW", "compatible": "VinFast" }, "geometry": { "type": "Point", "coordinates": [ 105.8414, 20.9795 ] } },
{ "type": "Feature", "properties": { "X": 105.864639, "Y": 20.980207, "Name": "Nhượng quyền Nguyễn Văn Chiến", "location": "545 Tam Trinh, Phường Hoàng Văn Thụ,Quận Hoàng Mai,Thành Phố Hà Nội, Quận Hoàng Mai, Thành phố Trung ương Hà Nội", "time active": "24/7 • Công cộng", "Brand": ": VinFast", "status": ": Đang hoạt động", "Power": ": VinFast ✧ 40kW", "compatible": "VinFast" }, "geometry": { "type": "Point", "coordinates": [ 105.864639, 20.980207 ] } },
{ "type": "Feature", "properties": { "X": 105.863907, "Y": 20.980301, "Name": "Trung tâm đăng kiểm 2910D, Đền Lừ, Hoàng Văn Thụ,  Hoàng Mai, Hà Nội", "location": "khu vực Đền Lừ, phường Hoàng Văn Thụ, Quận Hoàng Mai, Thành phố Trung ương Hà Nội", "time active": "24/7 • Công cộng", "Brand": ": VinFast", "status": ": Đang hoạt động", "Power": ": VinFast ✧ 120kW", "compatible": "VinFast" }, "geometry": { "type": "Point", "coordinates": [ 105.863907, 20.980301 ] } },
{ "type": "Feature", "properties": { "X": 105.766632, "Y": 20.98078, "Name": "Bãi đỗ xe Trường Quốc tế Nhật Bản", "location": "Hầm tòa nhà CBNV, trường Quốc Tế Nhật Bản, Số 84B, Đường Nguyễn Thanh Bình, phường Vạn Phúc, Quận Hà Đông, Thành phố Trung ương Hà Nội", "time active": "07:00 - 22:00 • Công cộng", "Brand": ": VinFast", "status": ": Đang hoạt động", "Power": ": VinFast ✧ 40kW, 30kW, 3.5kW", "compatible": "VinFast" }, "geometry": { "type": "Point", "coordinates": [ 105.766632, 20.98078 ] } },
{ "type": "Feature", "properties": { "X": 105.526741, "Y": 20.981256, "Name": "Nhượng quyền Nguyễn Thị Phú", "location": "Thôn 2, xã Thạch Hòa, huyện Thạch Thất, Hà Nội, Huyện Thạch Thất, Thành phố Trung ương Hà Nội", "time active": "24/7 • Công cộng", "Brand": ": VinFast", "status": ": Đang bận", "Power": ": VinFast ✧ 30kW", "compatible": "VinFast" }, "geometry": { "type": "Point", "coordinates": [ 105.526741, 20.981256 ] } },
{ "type": "Feature", "properties": { "X": 105.7987251, "Y": 20.98294484, "Name": "EBOOST - Việt Chào Hà Nội", "location": "Số 61/66 Triều Khúc, P. Tân Triều,  Q. Thanh Trì - TP. Hà Nội", "time active": "24/7 • Công cộng", "Brand": ": EBOOSTCar", "status": ": Đang hoạt động", "Power": ": EBOOSTCar ✧ 7kW", "compatible": "All" }, "geometry": { "type": "Point", "coordinates": [ 105.7987251, 20.98294484 ] } },
{ "type": "Feature", "properties": { "X": 105.865654, "Y": 20.983456, "Name": "Nhượng quyền VIP - Việt Phú 03", "location": "Đường vành đai 2.5, Phường Hoàng Văn Thụ, Quận Hoàng Mai, Thành phố Trung ương Hà Nội", "time active": "24/7 • Công cộng", "Brand": ": VinFast", "status": ": Đang hoạt động", "Power": ": VinFast ✧ 120kW, 60kW", "compatible": "VinFast" }, "geometry": { "type": "Point", "coordinates": [ 105.865654, 20.983456 ] } },
{ "type": "Feature", "properties": { "X": 105.6213, "Y": 20.9842, "Name": "NQ Hộ Kinh Doanh Dũng Huyền", "location": "Xóm Phú Thịnh, Thôn Phú Mỹ, Xã Ngọc Mỹ, Huyện Quốc Oai, Thành phố Trung ương Hà Nội", "time active": "24/7 • Công cộng", "Brand": ": VinFast", "status": ": Đang hoạt động", "Power": ": VinFast ✧ 120kW", "compatible": "VinFast" }, "geometry": { "type": "Point", "coordinates": [ 105.6213, 20.9842 ] } },
{ "type": "Feature", "properties": { "X": 105.846504, "Y": 20.985142, "Name": "TTTM Trương Định Plaza", "location": "TTTM Trương Định Plaza, số 461 Trương Định, phường Tân Mai, Quận Hoàng Mai, Thành phố Trung ương Hà Nội", "time active": "24/7 • Công cộng", "Brand": ": VinFast", "status": ": Đang hoạt động", "Power": ": VinFast ✧ 30kW, 22kW", "compatible": "VinFast" }, "geometry": { "type": "Point", "coordinates": [ 105.846504, 20.985142 ] } },
{ "type": "Feature", "properties": { "X": 105.798866, "Y": 20.98571, "Name": "Đại học Công nghệ Giao thông vận tải", "location": "Đại học Công nghệ Giao thông vận tải, 54 Phố Triều Khúc, phường Thanh Xuân Nam, Quận Thanh Xuân, Thành phố Trung ương Hà Nội", "time active": "06:00 - 22:00 • Công cộng", "Brand": ": VinFast", "status": ": Đang hoạt động", "Power": ": VinFast ✧ 30kW, 11kW", "compatible": "VinFast" }, "geometry": { "type": "Point", "coordinates": [ 105.798866, 20.98571 ] } },
{ "type": "Feature", "properties": { "X": 105.751389, "Y": 20.98612, "Name": "Nhượng quyền Nguyễn Thị Ngọc Tú", "location": "Xưởng gỗ Đồng Hành, Liền kề 16-17-18, KDT, xã Dương Nội, huyện Hà Đông, Hà Nội, Quận Hà Đông, Thành phố Trung ương Hà Nội", "time active": "24/7 • Công cộng", "Brand": ": VinFast", "status": ": Đang hoạt động", "Power": ": VinFast ✧ 20kW, 3.5kW", "compatible": "VinFast" }, "geometry": { "type": "Point", "coordinates": [ 105.751389, 20.98612 ] } },
{ "type": "Feature", "properties": { "X": 105.751564, "Y": 20.98616, "Name": "Xưởng gỗ Đồng Hành", "location": "KDT Dương Nội, Hà Đông, Hà Nội", "time active": "24/7 • Công cộng", "Brand": ": EverCharge", "status": ": Đang hoạt động", "Power": ": EverCharge ✧ 20kW", "compatible": "All" }, "geometry": { "type": "Point", "coordinates": [ 105.751564, 20.98616 ] } },
{ "type": "Feature", "properties": { "X": 105.788818, "Y": 20.986261, "Name": "Chung cư An Lạc - Phùng Khoang", "location": "Chung cư An Lạc Phùng Khoang, phường Trung Văn, Quận Nam Từ Liêm, Thành phố Trung ương Hà Nội", "time active": "24/7 • Công cộng", "Brand": ": VinFast", "status": ": Đang hoạt động", "Power": ": VinFast ✧ 60kW, 20kW, 3.5kW", "compatible": "VinFast" }, "geometry": { "type": "Point", "coordinates": [ 105.788818, 20.986261 ] } },
{ "type": "Feature", "properties": { "X": 105.751396, "Y": 20.986294, "Name": "Nhượng quyền Đào Thành Trung", "location": "Xưởng gỗ Đồng Hành, Liền kề 16, 17 18, KDT, phường Dương Nội, quận Hà Đông, Hà Nội, Quận Hà Đông, Thành phố Trung ương Hà Nội", "time active": "24/7 • Công cộng", "Brand": ": VinFast", "status": ": Đang hoạt động", "Power": ": VinFast ✧ 20kW, 3.5kW", "compatible": "VinFast" }, "geometry": { "type": "Point", "coordinates": [ 105.751396, 20.986294 ] } },
{ "type": "Feature", "properties": { "X": 105.942596, "Y": 20.987301, "Name": "Vinhomes Ocean Park, đối diện Vinuni", "location": "Bãi đỗ xe ngoài trời, bãi cỏ đối diện VinUni-Khu đất CXTP-18, Vinhomes Ocean Park, Huyện Gia Lâm, Thành phố Trung ương Hà Nội", "time active": "24/7 • Công cộng", "Brand": ": VinFast", "status": ": Đang hoạt động", "Power": ": VinFast ✧ 60kW", "compatible": "VinFast" }, "geometry": { "type": "Point", "coordinates": [ 105.942596, 20.987301 ] } },
{ "type": "Feature", "properties": { "X": 105.941887, "Y": 20.988386, "Name": "Vinhomes Ocean Park, đối diện tòa Technopark", "location": "Bãi đỗ xe ngoài trời, trên đường giao thông đối diện tòa Technopark, Vinhomes Ocean Park, Huyện Gia Lâm, Thành phố Trung ương Hà Nội", "time active": "24/7 • Công cộng", "Brand": ": VinFast", "status": ": Đang hoạt động", "Power": ": VinFast ✧ 30kW", "compatible": "VinFast" }, "geometry": { "type": "Point", "coordinates": [ 105.941887, 20.988386 ] } },
{ "type": "Feature", "properties": { "X": 105.568901, "Y": 20.988539, "Name": "Cửa hàng xăng dầu Petrolimex Đồng Trúc, số 32", "location": "Thôn Đồng Kho, Xã Đồng Trúc, Huyện Thạch Thất, Thành phố Trung ương Hà Nội", "time active": "24/7 • Công cộng", "Brand": ": VinFast", "status": ": Đang hoạt động", "Power": ": VinFast ✧ 180kW, 60kW", "compatible": "VinFast" }, "geometry": { "type": "Point", "coordinates": [ 105.568901, 20.988539 ] } },
{ "type": "Feature", "properties": { "X": 105.942436, "Y": 20.98871, "Name": "Văn phòng Technopark VinFast 45 tầng", "location": "Hầm B2 tòa Technoparrk, khu đô thị Vinhomes Ocean Park, xã Kiêu Kỵ, Huyện Gia Lâm, Thành phố Trung ương Hà Nội", "time active": "24/7 • Công cộng", "Brand": ": VinFast", "status": ": Đang hoạt động", "Power": ": VinFast ✧ 30kW, 11kW", "compatible": "VinFast" }, "geometry": { "type": "Point", "coordinates": [ 105.942436, 20.98871 ] } },
{ "type": "Feature", "properties": { "X": 105.944954, "Y": 20.988743, "Name": "Trường Đại học VinUni, khu giảng đường", "location": "Cạnh Tòa Giảng đường trường Đai học VinUni, Khu đô thị Gia Lâm, Huyện Gia Lâm, Thành phố Trung ương Hà Nội", "time active": "24/7 • Công cộng", "Brand": ": VinFast", "status": ": Đang hoạt động", "Power": ": VinFast ✧ 30kW, 11kW", "compatible": "VinFast" }, "geometry": { "type": "Point", "coordinates": [ 105.944954, 20.988743 ] } },
{ "type": "Feature", "properties": { "X": 105.752632, "Y": 20.989721, "Name": "TTTM AEON Hà Đông", "location": "Phường Dương Nội, Quận Hà Đông, Thành phố Trung ương Hà Nội", "time active": "10:00 - 22:00 • Công cộng", "Brand": ": VinFast", "status": ": Đang hoạt động", "Power": ": VinFast ✧ 120kW", "compatible": "VinFast" }, "geometry": { "type": "Point", "coordinates": [ 105.752632, 20.989721 ] } },
{ "type": "Feature", "properties": { "X": 105.948509, "Y": 20.98979, "Name": "Đại học VinUni", "location": "Bãi đỗ xe trường đại học VinUni, Khu đô thị Vinhomes Ocean Park, xã Kiêu Kỵ, Huyện Gia Lâm, Thành phố Trung ương Hà Nội", "time active": "24/7 • Riêng tư", "Brand": ": VinFast", "status": ": Đang hoạt động", "Power": ": VinFast ✧ 30kW, 11kW", "compatible": "VinFast" }, "geometry": { "type": "Point", "coordinates": [ 105.948509, 20.98979 ] } },
{ "type": "Feature", "properties": { "X": 105.940498, "Y": 20.99, "Name": "Vinhomes Ocean Park, đối diện tòa S2.03 và S2.01", "location": "Bãi đỗ xe ngoài trời, mặt đường Đại Dương, đối diện tòa S2.03 và S2.01, Vinhomes Ocean Park, Huyện Gia Lâm, Thành phố Trung ương Hà Nội", "time active": "24/7 • Công cộng", "Brand": ": VinFast", "status": ": Đang hoạt động", "Power": ": VinFast ✧ 30kW", "compatible": "VinFast" }, "geometry": { "type": "Point", "coordinates": [ 105.940498, 20.99 ] } },
{ "type": "Feature", "properties": { "X": 105.519608, "Y": 20.990673, "Name": "Nhượng quyền VF Hòa Lạc", "location": "Tầng 1, tòa nhà Hòa Lạc Mall, Thôn 2, xã Thạch Hòa, Huyện Thạch Thất, Thành phố Trung ương Hà Nội", "time active": "24/7 • Công cộng", "Brand": ": VinFast", "status": ": Đang bận", "Power": ": VinFast ✧ 30kW", "compatible": "VinFast" }, "geometry": { "type": "Point", "coordinates": [ 105.519608, 20.990673 ] } },
{ "type": "Feature", "properties": { "X": 105.956558, "Y": 20.991182, "Name": "Vinhomes Ocean Park, hầm nhà xe nổi Hải Âu CCTP11", "location": "Hầm nhà xe nổi  Hải Âu, Vinhomes Ocean Park, xã Đa Tốn, Huyện Gia Lâm, Thành phố Trung ương Hà Nội", "time active": "24/7 • Công cộng", "Brand": ": VinFast", "status": ": Đang hoạt động", "Power": ": VinFast ✧ 30kW, 11kW", "compatible": "VinFast" }, "geometry": { "type": "Point", "coordinates": [ 105.956558, 20.991182 ] } },
{ "type": "Feature", "properties": { "X": 105.957336, "Y": 20.99118, "Name": "Nhượng quyền - Vinhomes Ocean Park Depot Vinbus", "location": "Đường Hải Âu 12, xã Kiêu Kỵ, Huyện Gia Lâm, Thành phố Trung ương Hà Nội", "time active": "07:00 - 19:00 • Công cộng", "Brand": ": VinFast", "status": ": Đang hoạt động", "Power": ": VinFast ✧ 180kW", "compatible": "VinFast" }, "geometry": { "type": "Point", "coordinates": [ 105.957336, 20.99118 ] } },
{ "type": "Feature", "properties": { "X": 105.955635, "Y": 20.991226, "Name": "Vinhomes Ocean Park, khu vỉa hè nhà để xe CCTP-11", "location": "Bãi đỗ xe ngoài trời, vỉa hè thuộc Nhà để xe CCTP-11,  Vinhomes Ocean Park, Huyện Gia Lâm, Thành phố Trung ương Hà Nội", "time active": "24/7 • Công cộng", "Brand": ": VinFast", "status": ": Đang hoạt động", "Power": ": VinFast ✧ 80kW, 60kW", "compatible": "VinFast" }, "geometry": { "type": "Point", "coordinates": [ 105.955635, 20.991226 ] } },
{ "type": "Feature", "properties": { "X": 105.943581, "Y": 20.99122, "Name": "Vincom MegaMall Ocean Park, Bãi đỗ xe mặt đất", "location": "Bãi đỗ xe mặt đất Vincom MegaMall Ocean Park, Huyện Gia Lâm, Thành phố Trung ương Hà Nội", "time active": "24/7 • Công cộng", "Brand": ": VinFast", "status": ": Đang hoạt động", "Power": ": VinFast ✧ 60kW", "compatible": "VinFast" }, "geometry": { "type": "Point", "coordinates": [ 105.943581, 20.99122 ] } },
{ "type": "Feature", "properties": { "X": 105.940018, "Y": 20.991901, "Name": "Vinhomes Ocean Park, Hầm toà S2.01 đến S2.03", "location": "Hầm toà S2.01 đến S2.03 Vinhomes Ocean Park, xã Kiêu Kỵ, Huyện Gia Lâm, Thành phố Trung ương Hà Nội", "time active": "24/7 • Công cộng", "Brand": ": VinFast", "status": ": Đang hoạt động", "Power": ": VinFast ✧ 60kW, 11kW", "compatible": "VinFast" }, "geometry": { "type": "Point", "coordinates": [ 105.940018, 20.991901 ] } },
{ "type": "Feature", "properties": { "X": 105.940544, "Y": 20.99218, "Name": "Vinhomes Ocean Park, hầm B2 chung cư 01", "location": "Hầm nhà xe B2-CC01, Vinhomes Ocean Park, xã Đa Tốn, Huyện Gia Lâm, Thành phố Trung ương Hà Nội", "time active": "24/7 • Công cộng", "Brand": ": VinFast", "status": ": Đang hoạt động", "Power": ": VinFast ✧ 30kW, 11kW", "compatible": "VinFast" }, "geometry": { "type": "Point", "coordinates": [ 105.940544, 20.99218 ] } },
{ "type": "Feature", "properties": { "X": 105.942024, "Y": 20.992887, "Name": "Vinhomes Ocean Park, hầm S2.06-S2.09", "location": "Hầm chung cư S2.06-S2.09 Vinhomes Ocean Park, xã Đa Tốn, Huyện Gia Lâm, Thành phố Trung ương Hà Nội", "time active": "24/7 • Công cộng", "Brand": ": VinFast", "status": ": Đang hoạt động", "Power": ": VinFast ✧ 60kW, 11kW", "compatible": "VinFast" }, "geometry": { "type": "Point", "coordinates": [ 105.942024, 20.992887 ] } },
{ "type": "Feature", "properties": { "X": 105.788269, "Y": 20.993242, "Name": "Chung cư CT2 Trung Văn", "location": "Phường Trung Văn, Quận Nam Từ Liêm, Thành phố Trung ương Hà Nội", "time active": "24/7 • Công cộng", "Brand": ": VinFast", "status": ": Đang hoạt động", "Power": ": VinFast ✧ 60kW", "compatible": "VinFast" }, "geometry": { "type": "Point", "coordinates": [ 105.788269, 20.993242 ] } },
{ "type": "Feature", "properties": { "X": 105.786629, "Y": 20.993526, "Name": "Bãi đỗ xe ngoài trời Tòa nhà Ecolife Capitol - 58 Tố Hữu", "location": "Số 58, đường Tố Hữu, phường Trung Văn, Quận Nam Từ Liêm, Thành phố Trung ương Hà Nội", "time active": "24/7 • Công cộng", "Brand": ": VinFast", "status": ": Đang hoạt động", "Power": ": VinFast ✧ 60kW", "compatible": "VinFast" }, "geometry": { "type": "Point", "coordinates": [ 105.786629, 20.993526 ] } },
{ "type": "Feature", "properties": { "X": 105.941948, "Y": 20.993786, "Name": "Vinhomes Ocean Park, hầm B3CC02", "location": "Nhà xe nổi PK3, B3CC02, Vinhomes Ocean Park, xã Đa Tốn, Huyện Gia Lâm, Thành phố Trung ương Hà Nội", "time active": "24/7 • Công cộng", "Brand": ": VinFast", "status": ": Đang hoạt động", "Power": ": VinFast ✧ 60kW, 11kW", "compatible": "VinFast" }, "geometry": { "type": "Point", "coordinates": [ 105.941948, 20.993786 ] } },
{ "type": "Feature", "properties": { "X": 105.941902, "Y": 20.993816, "Name": "Vinhomes Ocean Park, nhà để xe mặt đất  B3", "location": "Trên mặt đất, nhà để xe B3 chung cư 02, Vinhomes Ocean Park, Huyện Gia Lâm, Thành phố Trung ương Hà Nội", "time active": "24/7 • Công cộng", "Brand": ": VinFast", "status": ": Đang hoạt động", "Power": ": VinFast ✧ 60kW", "compatible": "VinFast" }, "geometry": { "type": "Point", "coordinates": [ 105.941902, 20.993816 ] } },
{ "type": "Feature", "properties": { "X": 105.940697, "Y": 20.9939, "Name": "Vinhomes Ocean Park B1-CC01", "location": "Kiêu Kỵ, Huyện Gia Lâm, Thành phố Trung ương Hà Nội", "time active": "24/7 • Công cộng", "Brand": ": VinFast", "status": ": Đang hoạt động", "Power": ": VinFast ✧ 60kW, 11kW", "compatible": "VinFast" }, "geometry": { "type": "Point", "coordinates": [ 105.940697, 20.9939 ] } },
{ "type": "Feature", "properties": { "X": 105.958755, "Y": 20.993963, "Name": "Vincom MegaMall Ocean Park", "location": "Vincom Mega Mall Ocean Park, xã Dương Xá, Huyện Gia Lâm, Thành phố Trung ương Hà Nội", "time active": "24/7 • Công cộng", "Brand": ": VinFast", "status": ": Đang hoạt động", "Power": ": VinFast ✧ 180kW, 120kW, 7kW", "compatible": "VinFast" }, "geometry": { "type": "Point", "coordinates": [ 105.958755, 20.993963 ] } },
{ "type": "Feature", "properties": { "X": 105.959839, "Y": 20.994547, "Name": "Vincom Mega Mall Ocean Park", "location": "Bãi đỗ xe TTTM Ocean Park, khu đô thị Vinhomes Ocean Park, xã Kiêu Kỵ, Huyện Gia Lâm, Thành phố Trung ương Hà Nội", "time active": "24/7 • Công cộng", "Brand": ": VinFast", "status": ": Đang hoạt động", "Power": ": VinFast ✧ 250kW, 60kW", "compatible": "VinFast" }, "geometry": { "type": "Point", "coordinates": [ 105.959839, 20.994547 ] } },
{ "type": "Feature", "properties": { "X": 105.941757, "Y": 20.994623, "Name": "Vinhomes Ocean Park, hầm B3, chung cư 02", "location": "Hầm B1 nhà xe B3 chung cư 02, Vinhomes Ocean Park, Huyện Gia Lâm, Thành phố Trung ương Hà Nội", "time active": "24/7 • Công cộng", "Brand": ": VinFast", "status": ": Đang hoạt động", "Power": ": VinFast ✧ 60kW, 11kW", "compatible": "VinFast" }, "geometry": { "type": "Point", "coordinates": [ 105.941757, 20.994623 ] } },
{ "type": "Feature", "properties": { "X": 105.8908696, "Y": 20.99498588, "Name": "EBOOST - Minh Ngọc  Factory", "location": "Số 28 ngõ 683 Nguyễn Khoái, P. Thanh Trì, Q. Hoàng Mai, Hà Nội", "time active": "24/7 • Công cộng", "Brand": ": EBOOSTCar", "status": ": Đang hoạt động", "Power": ": EBOOSTCar ✧ 7kW", "compatible": "All" }, "geometry": { "type": "Point", "coordinates": [ 105.8908696, 20.99498588 ] } },
{ "type": "Feature", "properties": { "X": 105.865936, "Y": 20.99556, "Name": "Vinhomes Times City - Vỉa hè đường số 3", "location": "Vỉa hè đường số 3, Times city, Phường Vĩnh Tuy, Quận Hai Bà Trưng, Thành phố Trung ương Hà Nội", "time active": "24/7 • Công cộng", "Brand": ": VinFast", "status": ": Đang hoạt động", "Power": ": VinFast ✧ 30kW, 20kW", "compatible": "VinFast" }, "geometry": { "type": "Point", "coordinates": [ 105.865936, 20.99556 ] } },
{ "type": "Feature", "properties": { "X": 105.788803, "Y": 20.995977, "Name": "Công ty Bảo Anh- 236 phố Lương Thế Vinh, phường Đại Mỗ, Hà Nội", "location": "236 phố Lương Thế Vinh, phường Đại Mỗ, Hà Nội, Quận Nam Từ Liêm, Thành phố Trung ương Hà Nội", "time active": "24/7 • Công cộng", "Brand": ": VinFast", "status": ": Đang hoạt động", "Power": ": VinFast ✧ 120kW, 60kW, 3.5kW", "compatible": "VinFast" }, "geometry": { "type": "Point", "coordinates": [ 105.788803, 20.995977 ] } },
{ "type": "Feature", "properties": { "X": 105.9384, "Y": 20.996099, "Name": "Trạm sạc trường Vinschool lô PT02", "location": "Huyện Gia Lâm, Huyện Gia Lâm, Thành phố Trung ương Hà Nội", "time active": "24/7 • Riêng tư", "Brand": ": VinFast", "status": ": Đang hoạt động", "Power": ": VinFast ✧ 30kW, 11kW", "compatible": "VinFast" }, "geometry": { "type": "Point", "coordinates": [ 105.9384, 20.996099 ] } },
{ "type": "Feature", "properties": { "X": 105.943367, "Y": 20.996252, "Name": "Vinhomes Ocean Park, hầm S1 10-12,", "location": "Hầm S1 10-12, Vinhomes Ocean Park, xã Đa Tốn, Huyện Gia Lâm, Thành phố Trung ương Hà Nội", "time active": "24/7 • Công cộng", "Brand": ": VinFast", "status": ": Đang hoạt động", "Power": ": VinFast ✧ 60kW, 11kW", "compatible": "VinFast" }, "geometry": { "type": "Point", "coordinates": [ 105.943367, 20.996252 ] } },
{ "type": "Feature", "properties": { "X": 105.867203, "Y": 20.99637, "Name": "Vinmec Times City", "location": "Hầm B2 bệnh viện Vinmec, số 458 Minh Khai, phường Vĩnh Tuy, Quận Hai Bà Trưng, Thành phố Trung ương Hà Nội", "time active": "24/7 • Công cộng", "Brand": ": VinFast", "status": ": Đang hoạt động", "Power": ": VinFast ✧ 30kW, 20kW, 3.5kW", "compatible": "VinFast" }, "geometry": { "type": "Point", "coordinates": [ 105.867203, 20.99637 ] } },
{ "type": "Feature", "properties": { "X": 105.866013, "Y": 20.99663, "Name": "Vinhomes Times City, đối diện T32", "location": "Trạm sạc mặt đất, đối diện tòa T32, Vinhomes Times city, số 458, đường Minh Khai, Quận Hai Bà Trưng, Thành phố Trung ương Hà Nội", "time active": "24/7 • Công cộng", "Brand": ": VinFast", "status": ": Đang hoạt động", "Power": ": VinFast ✧ 60kW", "compatible": "VinFast" }, "geometry": { "type": "Point", "coordinates": [ 105.866013, 20.99663 ] } },
{ "type": "Feature", "properties": { "X": 105.866753, "Y": 20.996878, "Name": "Vinhomes Times City, bên cạnh T26", "location": "Bên cạnh tòa T26, Vinhomes Times city, số 458 Minh Khai , Quận Hai Bà Trưng, Thành phố Trung ương Hà Nội", "time active": "24/7 • Công cộng", "Brand": ": VinFast", "status": ": Đang hoạt động", "Power": ": VinFast ✧ 60kW", "compatible": "VinFast" }, "geometry": { "type": "Point", "coordinates": [ 105.866753, 20.996878 ] } },
{ "type": "Feature", "properties": { "X": 105.737633, "Y": 20.997353, "Name": "Vinhomes Smart City, nhà xe nổi F5", "location": "Nhà xe nổi F5, khu đô thị Vinhomes Smartcity, đường CT08, Quận Nam Từ Liêm, Thành phố Trung ương Hà Nội", "time active": "24/7 • Công cộng", "Brand": ": VinFast", "status": ": Đang hoạt động", "Power": ": VinFast ✧ 40kW, 30kW, 20kW, 3.5kW", "compatible": "VinFast" }, "geometry": { "type": "Point", "coordinates": [ 105.737633, 20.997353 ] } },
{ "type": "Feature", "properties": { "X": 105.8685, "Y": 20.9974, "Name": "Vinhomes Times City Văn phòng T14, mặt đất", "location": "Tòa nhà T14, khu đô thị Vinhomes Times City, số 458 Minh Khai, phường Vĩnh Tuy, Quận Hai Bà Trưng, Thành phố Trung ương Hà Nội", "time active": "24/7 • Công cộng", "Brand": ": VinFast", "status": ": Đang hoạt động", "Power": ": VinFast ✧ 60kW", "compatible": "VinFast" }, "geometry": { "type": "Point", "coordinates": [ 105.8685, 20.9974 ] } },
{ "type": "Feature", "properties": { "X": 105.868103, "Y": 20.997499, "Name": "Vinhomes Times City, Tòa Văn phòng T14 - Hầm B1", "location": "Hầm B1, T14, khu đô thị Vinhomes Times City, số 458 Minh Khai, phường Vĩnh Tuy, Quận Hai Bà Trưng, Thành phố Trung ương Hà Nội", "time active": "24/7 • Công cộng", "Brand": ": VinFast", "status": ": Đang hoạt động", "Power": ": VinFast ✧ 20kW, 3.5kW", "compatible": "VinFast" }, "geometry": { "type": "Point", "coordinates": [ 105.868103, 20.997499 ] } },
{ "type": "Feature", "properties": { "X": 105.919746, "Y": 20.997543, "Name": "Cửa hàng xăng dầu Petrolimex Số 80", "location": "Thôn 4, Xã Đông Dư, Huyện Gia Lâm, Thành phố Trung ương Hà Nội", "time active": "24/7 • Công cộng", "Brand": ": VinFast", "status": ": Đang hoạt động", "Power": ": VinFast ✧ 180kW, 60kW", "compatible": "VinFast" }, "geometry": { "type": "Point", "coordinates": [ 105.919746, 20.997543 ] } },
{ "type": "Feature", "properties": { "X": 105.868149, "Y": 20.9981, "Name": "Vinhomes Times City, khu Vietcombank", "location": "Vỉa hè tiếp giáp Vietcombank, Vinhomes Times City, 458 Minh Khai, phường Vĩnh Tuy, Quận Hai Bà Trưng, Thành phố Trung ương Hà Nội", "time active": "24/7 • Công cộng", "Brand": ": VinFast", "status": ": Đang hoạt động", "Power": ": VinFast ✧ 180kW", "compatible": "VinFast" }, "geometry": { "type": "Point", "coordinates": [ 105.868149, 20.9981 ] } },
{ "type": "Feature", "properties": { "X": 105.721542, "Y": 20.998369, "Name": "Vinhomes Thăng Long, Nam An Khánh", "location": "Khu đô thị Nam An Khánh, địa phận 2 xã An Khánh, An Thượng, Huyện Hoài Đức, Thành phố Trung ương Hà Nội", "time active": "07:00 - 17:00 • Công cộng", "Brand": ": VinFast", "status": ": Đang hoạt động", "Power": ": VinFast ✧ 60kW, 30kW", "compatible": "VinFast" }, "geometry": { "type": "Point", "coordinates": [ 105.721542, 20.998369 ] } },
{ "type": "Feature", "properties": { "X": 105.737297, "Y": 20.998594, "Name": "Vinhomes Smart City Nhà xe F4-CCTP1", "location": "Tây Mỗ, Quận Nam Từ Liêm, Thành phố Trung ương Hà Nội", "time active": "24/7 • Công cộng", "Brand": ": VinFast", "status": ": Đang hoạt động", "Power": ": VinFast ✧ 60kW, 11kW", "compatible": "VinFast" }, "geometry": { "type": "Point", "coordinates": [ 105.737297, 20.998594 ] } },
{ "type": "Feature", "properties": { "X": 105.543388, "Y": 20.99926, "Name": "Nhà máy VinSmart Hòa Lạc", "location": "Nhà máy VinSmart Hòa Lạc, xã Hạ bằng, Huyện Thạch Thất, Thành phố Trung ương Hà Nội", "time active": "24/7 • Riêng tư", "Brand": ": VinFast", "status": ": Đang hoạt động", "Power": ": VinFast ✧ 60kW", "compatible": "VinFast" }, "geometry": { "type": "Point", "coordinates": [ 105.543388, 20.99926 ] } },
{ "type": "Feature", "properties": { "X": 105.636673, "Y": 20.999277, "Name": "Nhượng quyền Trần Quốc Tiến", "location": "B54, khu đô thị Ngôi Nhà Mới, tt Quốc Oai, huyện Quốc Oai, Hà Nội, Huyện Quốc Oai, Thành phố Trung ương Hà Nội", "time active": "24/7 • Công cộng", "Brand": ": VinFast", "status": ": Đang hoạt động", "Power": ": VinFast ✧ 40kW", "compatible": "VinFast" }, "geometry": { "type": "Point", "coordinates": [ 105.636673, 20.999277 ] } },
{ "type": "Feature", "properties": { "X": 105.8339, "Y": 20.999901, "Name": "NQ FAST+ NEWWAY TRƯỜNG CHINH", "location": "162 Trường Chinh, phường Khương Thượng, Quận Đống Đa, Thành phố Trung ương Hà Nội", "time active": "08:00 - 18:00 • Công cộng", "Brand": ": VinFast", "status": ": Đang bận", "Power": ": VinFast ✧ 60kW", "compatible": "VinFast" }, "geometry": { "type": "Point", "coordinates": [ 105.8339, 20.999901 ] } },
{ "type": "Feature", "properties": { "X": 105.799606, "Y": 21.000021, "Name": "Chung cư Việt Đức Complex", "location": "Hầm B2 cột D-H2-12, tòa nhà Viet Duc Complex, ngõ 164 Khuất Duy Tiến, phường Nhân Chính, Quận Thanh Xuân, Thành phố Trung ương Hà Nội", "time active": "08:30 - 22:00 • Công cộng", "Brand": ": VinFast", "status": ": Đang hoạt động", "Power": ": VinFast ✧ 20kW, 3.5kW", "compatible": "VinFast" }, "geometry": { "type": "Point", "coordinates": [ 105.799606, 21.000021 ] } },
{ "type": "Feature", "properties": { "X": 105.815628, "Y": 21.000254, "Name": "TTTM PICO 76 NGUYỄN TRÃI", "location": "TTTM PICO 76 NGUYỄN TRÃI, Quận Cầu Giấy, Thành phố Trung ương Hà Nội", "time active": "24/7 • Công cộng", "Brand": ": VinFast", "status": ": Đang hoạt động", "Power": ": VinFast ✧ 120kW, 3.5kW", "compatible": "VinFast" }, "geometry": { "type": "Point", "coordinates": [ 105.815628, 21.000254 ] } },
{ "type": "Feature", "properties": { "X": 105.791313, "Y": 21.000521, "Name": "Vinhomes Green Bay, bãi xe nổi", "location": "Bãi xe nổi, cuối đường thạch thảo 1, cạnh clubhouse 1, Vinhomes Green Bay, phường Mễ Trì, Quận Nam Từ Liêm, Thành phố Trung ương Hà Nội", "time active": "06:00 - 20:00 • Công cộng", "Brand": ": VinFast", "status": ": Đang hoạt động", "Power": ": VinFast ✧ 60kW, 40kW, 11kW, 3.5kW", "compatible": "VinFast" }, "geometry": { "type": "Point", "coordinates": [ 105.791313, 21.000521 ] } },
{ "type": "Feature", "properties": { "X": 105.599228, "Y": 21.00086, "Name": "Nhượng quyền LUX Công ty Tâm Tâm", "location": "Quốc Oai, Hà nội, Huyện Quốc Oai, Thành phố Trung ương Hà Nội", "time active": "24/7 • Công cộng", "Brand": ": VinFast", "status": ": Đang hoạt động", "Power": ": VinFast ✧ 120kW, 60kW", "compatible": "VinFast" }, "geometry": { "type": "Point", "coordinates": [ 105.599228, 21.00086 ] } },
{ "type": "Feature", "properties": { "X": 105.738091, "Y": 21.001644, "Name": "Vinhomes Smart City, hầm xe tòa F4 CH03", "location": "Hầm xe Tòa F4 CH03, tòa S3.01, Vinhomes Smart City, phường Tây Mỗ, Quận Nam Từ Liêm, Thành phố Trung ương Hà Nội", "time active": "24/7 • Công cộng", "Brand": ": VinFast", "status": ": Đang hoạt động", "Power": ": VinFast ✧ 40kW, 3.5kW", "compatible": "VinFast" }, "geometry": { "type": "Point", "coordinates": [ 105.738091, 21.001644 ] } },
{ "type": "Feature", "properties": { "X": 105.944504, "Y": 21.002127, "Name": "Vinhomes Ocean Park, hầm B1 nhà xe B5 chung cư 01", "location": "Hầm B1 nhà xe B5 chung cư 01, Vinhomes Ocean Park, Huyện Gia Lâm, Thành phố Trung ương Hà Nội", "time active": "24/7 • Công cộng", "Brand": ": VinFast", "status": ": Đang hoạt động", "Power": ": VinFast ✧ 60kW, 11kW", "compatible": "VinFast" }, "geometry": { "type": "Point", "coordinates": [ 105.944504, 21.002127 ] } },
{ "type": "Feature", "properties": { "X": 105.737785, "Y": 21.002216, "Name": "Vinhomes Smart City, trục đường KV2, khu 2", "location": "Bãi đỗ xe ngoài trời, trục đường KV2, Vinhomes Smart City, đường CT08, phường Tây Mỗ, Quận Nam Từ Liêm, Thành phố Trung ương Hà Nội", "time active": "24/7 • Công cộng", "Brand": ": VinFast", "status": ": Đang hoạt động", "Power": ": VinFast ✧ 60kW, 11kW", "compatible": "VinFast" }, "geometry": { "type": "Point", "coordinates": [ 105.737785, 21.002216 ] } },
{ "type": "Feature", "properties": { "X": 105.815155, "Y": 21.002337, "Name": "Vinhomes Royal City - Hầm B3, QQ17", "location": "Tòa R6 - Hầm B3 - Cột 17/QQ, Vinhomes Royal Ctiy, 72A Nguyễn Trãi, phường Thượng Đình, Quận Thanh Xuân, Thành phố Trung ương Hà Nội", "time active": "24/7 • Công cộng", "Brand": ": VinFast", "status": ": Đang hoạt động", "Power": ": VinFast ✧ 30kW", "compatible": "VinFast" }, "geometry": { "type": "Point", "coordinates": [ 105.815155, 21.002337 ] } },
{ "type": "Feature", "properties": { "X": 105.943657, "Y": 21.00255, "Name": "Vinhomes Ocean Park, hầm B5 chung cư 02", "location": "Nhà xe nổi B5, chung cư 01- PK4, Vinhomes Ocean Park, xã Đa Tốn, Huyện Gia Lâm, Thành phố Trung ương Hà Nội", "time active": "24/7 • Công cộng", "Brand": ": VinFast", "status": ": Đang hoạt động", "Power": ": VinFast ✧ 30kW, 11kW", "compatible": "VinFast" }, "geometry": { "type": "Point", "coordinates": [ 105.943657, 21.00255 ] } },
{ "type": "Feature", "properties": { "X": 105.740799, "Y": 21.002827, "Name": "Vinhomes Smart City, trục đường DT3", "location": "Bãi đỗ xe ngoài trời, trục đường DT3, Vinhomes Smart City, đường CT08, phường Tây Mỗ, Quận Nam Từ Liêm, Thành phố Trung ương Hà Nội", "time active": "24/7 • Công cộng", "Brand": ": VinFast", "status": ": Đang hoạt động", "Power": ": VinFast ✧ 30kW, 11kW", "compatible": "VinFast" }, "geometry": { "type": "Point", "coordinates": [ 105.740799, 21.002827 ] } },
{ "type": "Feature", "properties": { "X": 105.782883, "Y": 21.003458, "Name": "Trung tâm hội nghị Quốc Gia, bãi đỗ xe NCC số 1", "location": "Số 1, Đại lộ Thăng Long, Quận Nam Từ Liêm, Thành phố Trung ương Hà Nội", "time active": "24/7 • Công cộng", "Brand": ": VinFast", "status": ": Đang hoạt động", "Power": ": VinFast ✧ 60kW, 30kW, 20kW, 3.5kW", "compatible": "VinFast" }, "geometry": { "type": "Point", "coordinates": [ 105.782883, 21.003458 ] } },
{ "type": "Feature", "properties": { "X": 105.755997, "Y": 21.003559, "Name": "Vinhomes Smart City, trục đường KV7, khu nhà hàng Nhật", "location": "Bãi đỗ xe ngoài trời, trục đường KV7, vỉa hè Nhà hàng Nhật, Vinhomes Smart City, đường CT08, phường tây Mỗ, Quận Nam Từ Liêm, Thành phố Trung ương Hà Nội", "time active": "24/7 • Công cộng", "Brand": ": VinFast", "status": ": Đang hoạt động", "Power": ": VinFast ✧ 30kW", "compatible": "VinFast" }, "geometry": { "type": "Point", "coordinates": [ 105.755997, 21.003559 ] } },
{ "type": "Feature", "properties": { "X": 105.634666, "Y": 21.003836, "Name": "Đại lý Ô tô VinFast Hà Thành", "location": "Đại lý ô tô VinFast Mỹ Đình 3, khu công nghiệp Thạch Thất, Huyện Quốc Oai, Thành phố Trung ương Hà Nội", "time active": "24/7 • Công cộng", "Brand": ": VinFast", "status": ": Đang hoạt động", "Power": ": VinFast ✧ 60kW, 30kW", "compatible": "VinFast" }, "geometry": { "type": "Point", "coordinates": [ 105.634666, 21.003836 ] } },
{ "type": "Feature", "properties": { "X": 105.519371, "Y": 21.004305, "Name": "Nhượng Quyền Tư Nhân Nguyễn Văn Đạt", "location": "Nhà hàng Gà Ri Phú Bình 2, Thạch Hòa, Thạch Thất, Hà Nội, Huyện Thạch Thất, Thành phố Trung ương Hà Nội", "time active": "24/7 • Công cộng", "Brand": ": VinFast", "status": ": Đang hoạt động", "Power": ": VinFast ✧ 30kW", "compatible": "VinFast" }, "geometry": { "type": "Point", "coordinates": [ 105.519371, 21.004305 ] } },
{ "type": "Feature", "properties": { "X": 105.519402, "Y": 21.004543, "Name": "Nhượng quyền Hoàng Thị Hoàn", "location": "Thôn 3, xã Thạch Hòa, huyện Thạch Thất, Hà Nội, Huyện Thạch Thất, Thành phố Trung ương Hà Nội", "time active": "24/7 • Công cộng", "Brand": ": VinFast", "status": ": Đang hoạt động", "Power": ": VinFast ✧ 40kW", "compatible": "VinFast" }, "geometry": { "type": "Point", "coordinates": [ 105.519402, 21.004543 ] } },
{ "type": "Feature", "properties": { "X": 105.7388, "Y": 21.004766, "Name": "Vinhomes Smart City, hầm Lô F4 CH01, tòa S2.02", "location": "Hầm Lô F4-CH01 tòa S2.02, Vinhomes Smart City, phường Tây Mỗ, Quận Nam Từ Liêm, Thành phố Trung ương Hà Nội", "time active": "24/7 • Công cộng", "Brand": ": VinFast", "status": ": Đang hoạt động", "Power": ": VinFast ✧ 40kW, 3.5kW", "compatible": "VinFast" }, "geometry": { "type": "Point", "coordinates": [ 105.7388, 21.004766 ] } },
{ "type": "Feature", "properties": { "X": 105.754646, "Y": 21.005068, "Name": "Vincom Mega Mall Smart City, sảnh chính", "location": "Sảnh chính, Vincom Mega Mall Smart City, Quận Nam Từ Liêm, Thành phố Trung ương Hà Nội", "time active": "24/7 • Công cộng", "Brand": ": VinFast", "status": ": Đang hoạt động", "Power": ": VinFast ✧ 60kW", "compatible": "VinFast" }, "geometry": { "type": "Point", "coordinates": [ 105.754646, 21.005068 ] } },
{ "type": "Feature", "properties": { "X": 105.831696, "Y": 21.006107, "Name": "Vincom Center Phạm Ngọc Thạch, hầm B2-B3", "location": "Hầm B2-B3, Vincom Center Phạm Ngọc Thạch, số 2, đường Phạm Ngọc Thạch, phường Trung Tự, Quận Đống Đa, Thành phố Trung ương Hà Nội", "time active": "24/7 • Công cộng", "Brand": ": VinFast", "status": ": Đang hoạt động", "Power": ": VinFast ✧ 60kW, 30kW", "compatible": "VinFast" }, "geometry": { "type": "Point", "coordinates": [ 105.831696, 21.006107 ] } },
{ "type": "Feature", "properties": { "X": 105.790428, "Y": 21.006113, "Name": "Trung tâm hội nghị Quốc gia, bãi đỗ xe NCC Số 2", "location": "Số 2, đường Phạm Hùng, Quận Nam Từ Liêm, Thành phố Trung ương Hà Nội", "time active": "24/7 • Công cộng", "Brand": ": VinFast", "status": ": Đang hoạt động", "Power": ": VinFast ✧ 60kW, 30kW, 20kW, 3.5kW", "compatible": "VinFast" }, "geometry": { "type": "Point", "coordinates": [ 105.790428, 21.006113 ] } },
{ "type": "Feature", "properties": { "X": 105.70739, "Y": 21.006124, "Name": "A Linh Hà Đô", "location": "LK7-10,khu đô thị Hà Đô Charm Villas, An Thượng, Hoài Đức, Hà Nội", "time active": "24/7 • Công cộng", "Brand": ": EverCharge", "status": ": Đang hoạt động", "Power": ": EverCharge ✧ 20kW", "compatible": "All" }, "geometry": { "type": "Point", "coordinates": [ 105.70739, 21.006124 ] } },
{ "type": "Feature", "properties": { "X": 105.753479, "Y": 21.006189, "Name": "Vincom Mega Mall Smart City, bên cạnh TTTM", "location": "Bãi xe ngoài trời, bên sườn Vincom Mega Mall Smart City, Quận Nam Từ Liêm, Thành phố Trung ương Hà Nội", "time active": "24/7 • Công cộng", "Brand": ": VinFast", "status": ": Đang hoạt động", "Power": ": VinFast ✧ 250kW, 60kW, 40kW, 3.5kW", "compatible": "VinFast" }, "geometry": { "type": "Point", "coordinates": [ 105.753479, 21.006189 ] } },
{ "type": "Feature", "properties": { "X": 105.75293, "Y": 21.006195, "Name": "Vincom Mega Mall Smart City, bãi đỗ xe FS1", "location": "Bãi đỗ xe FS1, khu đô thị Vinhomes Smartcity, đường CT 08, Quận Nam Từ Liêm, Thành phố Trung ương Hà Nội", "time active": "24/7 • Công cộng", "Brand": ": VinFast", "status": ": Đang hoạt động", "Power": ": VinFast ✧ 80kW, 60kW, 30kW", "compatible": "VinFast" }, "geometry": { "type": "Point", "coordinates": [ 105.75293, 21.006195 ] } },
{ "type": "Feature", "properties": { "X": 105.831802, "Y": 21.006477, "Name": "Vincom Center Phạm Ngọc Thạch - Hầm B3", "location": "Hầm B3 TTTM Vincom Center Phạm Ngọc Thạch, số 2 Phạm Ngọc Thạch, phường Trung Tự, Quận Đống Đa, Thành phố Trung ương Hà Nội", "time active": "24/7 • Công cộng", "Brand": ": VinFast", "status": ": Đang hoạt động", "Power": ": VinFast ✧ 30kW, 20kW, 3.5kW", "compatible": "VinFast" }, "geometry": { "type": "Point", "coordinates": [ 105.831802, 21.006477 ] } },
{ "type": "Feature", "properties": { "X": 105.8614334, "Y": 21.00666214, "Name": "Charge + AutoCare", "location": "số 135, Phố Kim Ngưu, P. Thanh Lương, Q. Hai Bà Trưng, TP. Hà Nội", "time active": "24/7 • Công cộng", "Brand": ": Charge+", "status": ": Đang hoạt động", "Power": ": Charge+ ✧ 11kW", "compatible": "All" }, "geometry": { "type": "Point", "coordinates": [ 105.8614334, 21.00666214 ] } },
{ "type": "Feature", "properties": { "X": 105.7472, "Y": 21.006727, "Name": "Vinmec Smart City", "location": "Phường Tây Mỗ, Quận Nam Từ Liêm, Thành phố Trung ương Hà Nội", "time active": "24/7 • Công cộng", "Brand": ": VinFast", "status": ": Đang hoạt động", "Power": ": VinFast ✧ 60kW, 40kW, 11kW, 3.5kW", "compatible": "VinFast" }, "geometry": { "type": "Point", "coordinates": [ 105.7472, 21.006727 ] } },
{ "type": "Feature", "properties": { "X": 105.793716, "Y": 21.006773, "Name": "TTTM Big C Thăng Long", "location": "Bãi đỗ xe TTTM Big C Thăng Long, số 222 Trần Duy Hưng, phường Trung Hoà, Quận Cầu Giấy, Thành phố Trung ương Hà Nội", "time active": "08:00 - 22:00 • Công cộng", "Brand": ": VinFast", "status": ": Đang hoạt động", "Power": ": VinFast ✧ 250kW, 120kW, 60kW, 3.5kW", "compatible": "VinFast" }, "geometry": { "type": "Point", "coordinates": [ 105.793716, 21.006773 ] } },
{ "type": "Feature", "properties": { "X": 105.659065, "Y": 21.007282, "Name": "Nhượng Quyền Tư Nhân Nguyễn Sơn Tiền", "location": ", Huyện Quốc Oai, Hà Nội, Huyện Quốc Oai, Thành phố Trung ương Hà Nội", "time active": "24/7 • Công cộng", "Brand": ": VinFast", "status": ": Đang hoạt động", "Power": ": VinFast ✧ 20kW, 3.5kW", "compatible": "VinFast" }, "geometry": { "type": "Point", "coordinates": [ 105.659065, 21.007282 ] } },
{ "type": "Feature", "properties": { "X": 105.750954, "Y": 21.007307, "Name": "Nhượng quyền - Vinhomes Smart City Depot Vinbus", "location": "Phường Tây Mỗ, Quận Nam Từ Liêm, Thành phố Trung ương Hà Nội", "time active": "07:00 - 19:00 • Công cộng", "Brand": ": VinFast", "status": ": Đang hoạt động", "Power": ": VinFast ✧ 180kW", "compatible": "VinFast" }, "geometry": { "type": "Point", "coordinates": [ 105.750954, 21.007307 ] } },
{ "type": "Feature", "properties": { "X": 105.840431, "Y": 21.007364, "Name": "Tòa nhà Hàng Hải Việt Nam, Số 1, Đào Duy Anh, Phương Mai, Hà Nội", "location": "Số 1 Đào Duy Anh, Phường Phương Mai, Quận Đống Đa, Thành phố Trung ương Hà Nội", "time active": "24/7 • Công cộng", "Brand": ": VinFast", "status": ": Đang hoạt động", "Power": ": VinFast ✧ 120kW", "compatible": "VinFast" }, "geometry": { "type": "Point", "coordinates": [ 105.840431, 21.007364 ] } },
{ "type": "Feature", "properties": { "X": 105.742035, "Y": 21.007984, "Name": "Vinhomes Smart City - Tầng hầm nhà xe nổi F2", "location": "Tầng hầm nhà xe nổi F2, Vinhomes Smart City, phường Tây Mỗ, Quận Nam Từ Liêm, Thành phố Trung ương Hà Nội", "time active": "24/7 • Công cộng", "Brand": ": VinFast", "status": ": Đang hoạt động", "Power": ": VinFast ✧ 40kW, 30kW, 3.5kW", "compatible": "VinFast" }, "geometry": { "type": "Point", "coordinates": [ 105.742035, 21.007984 ] } },
{ "type": "Feature", "properties": { "X": 105.737572, "Y": 21.008995, "Name": "Vinhomes Smart City, hầm SF1, tòa S1.01", "location": "Hầm nhà xe SF1, tòa S1.01, Vinhomes Smart City, phường Tây Mỗ, Quận Nam Từ Liêm, Thành phố Trung ương Hà Nội", "time active": "24/7 • Công cộng", "Brand": ": VinFast", "status": ": Đang hoạt động", "Power": ": VinFast ✧ 40kW, 3.5kW", "compatible": "VinFast" }, "geometry": { "type": "Point", "coordinates": [ 105.737572, 21.008995 ] } },
{ "type": "Feature", "properties": { "X": 105.815071, "Y": 21.009211, "Name": "Đại lý Ô tô VinFast Newway", "location": "Đại lý ô tô VinFast Newway, số 183, đường Yên Lãng (số 358, đường Láng), Quận Đống Đa, Thành phố Trung ương Hà Nội", "time active": "08:00 - 17:30 • Công cộng", "Brand": ": VinFast", "status": ": Đang hoạt động", "Power": ": VinFast ✧ 30kW", "compatible": "VinFast" }, "geometry": { "type": "Point", "coordinates": [ 105.815071, 21.009211 ] } },
{ "type": "Feature", "properties": { "X": 105.738785, "Y": 21.009256, "Name": "Vinhomes Smart City, bãi đỗ xe nổi", "location": "Bãi đỗ xe nổi, cạnh tòa S1.02, Vinhomes Smart City, phường Tây Mỗ, Quận Nam Từ Liêm, Thành phố Trung ương Hà Nội", "time active": "24/7 • Công cộng", "Brand": ": VinFast", "status": ": Đang hoạt động", "Power": ": VinFast ✧ 60kW, 11kW", "compatible": "VinFast" }, "geometry": { "type": "Point", "coordinates": [ 105.738785, 21.009256 ] } },
{ "type": "Feature", "properties": { "X": 105.7884998, "Y": 21.01047274, "Name": "EV ONE-Audi Hà Nội", "location": "8 Đường Phạm Hùng, P. Mễ Trì, Q. Nam Từ Liêm, TP. Hà Nội", "time active": "24/7 • Công cộng", "Brand": ": EVONE", "status": ": Đang hoạt động", "Power": ": EVONE ✧ 180kW", "compatible": "All" }, "geometry": { "type": "Point", "coordinates": [ 105.7884998, 21.01047274 ] } },
{ "type": "Feature", "properties": { "X": 105.518715, "Y": 21.010872, "Name": "NQ Tư Nhân Hoàng Như Bật", "location": "Số 129, Thôn 3, Xã Hòa Lạc (xã Thạch Hòa, Huyện Thạch Thất), Huyện Thạch Thất, Thành phố Trung ương Hà Nội", "time active": "24/7 • Công cộng", "Brand": ": VinFast", "status": ": Đang hoạt động", "Power": ": VinFast ✧ 40kW", "compatible": "VinFast" }, "geometry": { "type": "Point", "coordinates": [ 105.518715, 21.010872 ] } },
{ "type": "Feature", "properties": { "X": 105.850021, "Y": 21.0114, "Name": "Vincom Center Bà Triệu", "location": "Hầm B2, Vincom Center Bà Triệu, số 191, đường Bà Triệu, Quận Hai Bà Trưng, Thành phố Trung ương Hà Nội", "time active": "24/7 • Công cộng", "Brand": ": VinFast", "status": ": Đang hoạt động", "Power": ": VinFast ✧ 40kW, 30kW, 3.5kW", "compatible": "VinFast" }, "geometry": { "type": "Point", "coordinates": [ 105.850021, 21.0114 ] } },
{ "type": "Feature", "properties": { "X": 105.785431, "Y": 21.01158, "Name": "Vinhomes West Point", "location": "Hầm xe, Vinhomes West Point, góc ngã tư giao cắt giữa 2 tuyến đường Đỗ Đức Dục và Phạm Hùng, Quận Nam Từ Liêm, Thành phố Trung ương Hà Nội", "time active": "24/7 • Công cộng", "Brand": ": VinFast", "status": ": Đang hoạt động", "Power": ": VinFast ✧ 30kW, 11kW", "compatible": "VinFast" }, "geometry": { "type": "Point", "coordinates": [ 105.785431, 21.01158 ] } },
{ "type": "Feature", "properties": { "X": 105.730797, "Y": 21.0123, "Name": "Công ty Pika Vượng- Đại lộ Thăng Long, Xã An Khánh, Hoài Đức, Hà Nội", "location": "Đại lộ Thăng Long, Xã An Khánh, Hoài Đức, Hà Nội, Huyện Hoài Đức, Thành phố Trung ương Hà Nội", "time active": "24/7 • Công cộng", "Brand": ": VinFast", "status": ": Đang hoạt động", "Power": ": VinFast ✧ 60kW, 11kW, 3.5kW", "compatible": "VinFast" }, "geometry": { "type": "Point", "coordinates": [ 105.730797, 21.0123 ] } },
{ "type": "Feature", "properties": { "X": 105.783134, "Y": 21.012423, "Name": "Nhượng quyền - Hộ kinh doanh Vinh Phương Huy 21", "location": "Chung cư 1, chợ dân sinh, P. Mễ trì hạ, Quận Nam Từ Liêm, Thành phố Trung ương Hà Nội", "time active": "24/7 • Công cộng", "Brand": ": VinFast", "status": ": Đang hoạt động", "Power": ": VinFast ✧ 120kW", "compatible": "VinFast" }, "geometry": { "type": "Point", "coordinates": [ 105.783134, 21.012423 ] } },
{ "type": "Feature", "properties": { "X": 105.791084, "Y": 21.012957, "Name": "Chung cư B10B Nam Trung Yên", "location": "Tầng 1, Nhà chung cư B10B, Khu đô thị Nam Trung Yên, Quận Cầu Giấy, Thành phố Trung ương Hà Nội", "time active": "07:00 - 17:00 • Công cộng", "Brand": ": VinFast", "status": ": Đang hoạt động", "Power": ": VinFast ✧ 30kW, 11kW", "compatible": "VinFast" }, "geometry": { "type": "Point", "coordinates": [ 105.791084, 21.012957 ] } },
{ "type": "Feature", "properties": { "X": 105.539581, "Y": 21.013109, "Name": "Bãi đỗ xe Khu Công nghệ cao Hòa Lạc", "location": "Kilomet 29, Đại lộ Thăng Long, Xã Tân Xã, Huyện Thạch Thất, Thành phố Trung ương Hà Nội", "time active": "24/7 • Công cộng", "Brand": ": VinFast", "status": ": Đang hoạt động", "Power": ": VinFast ✧ 60kW", "compatible": "VinFast" }, "geometry": { "type": "Point", "coordinates": [ 105.539581, 21.013109 ] } },
{ "type": "Feature", "properties": { "X": 105.781616, "Y": 21.014347, "Name": "Bãi đỗ xe Mễ Trì", "location": "Hầm B1, bãi đỗ xe Mễ Trì, số 3, đường Mễ Trì Hạ, phường Mễ Trì Hạ, Quận Nam Từ Liêm, Thành phố Trung ương Hà Nội", "time active": "24/7 • Công cộng", "Brand": ": VinFast", "status": ": Đang hoạt động", "Power": ": VinFast ✧ 30kW, 20kW, 3.5kW", "compatible": "VinFast" }, "geometry": { "type": "Point", "coordinates": [ 105.781616, 21.014347 ] } },
{ "type": "Feature", "properties": { "X": 105.769615, "Y": 21.014992, "Name": "Bãi đỗ xe Mỹ Đình, Phường Phú Đô, Nam Từ Liêm, Hà Nội", "location": "Phường Phú Đô, Nam Từ Liêm, Hà Nội, Quận Nam Từ Liêm, Thành phố Trung ương Hà Nội", "time active": "24/7 • Công cộng", "Brand": ": VinFast", "status": ": Đang hoạt động", "Power": ": VinFast ✧ 120kW, 7kW", "compatible": "VinFast" }, "geometry": { "type": "Point", "coordinates": [ 105.769615, 21.014992 ] } },
{ "type": "Feature", "properties": { "X": 105.64933, "Y": 21.01531, "Name": "Nhượng quyền VIP - Cửa hàng xăng dầu Sài Sơn", "location": "Kilomet 4, Đường 81, Xã Sài Sơn, Huyện Quốc Oai, Thành phố Trung ương Hà Nội", "time active": "24/7 • Công cộng", "Brand": ": VinFast", "status": ": Đang hoạt động", "Power": ": VinFast ✧ 150kW, 60kW", "compatible": "VinFast" }, "geometry": { "type": "Point", "coordinates": [ 105.64933, 21.01531 ] } },
{ "type": "Feature", "properties": { "X": 105.649391, "Y": 21.015404, "Name": "Cửa hàng xăng dầu Sài Sơn", "location": "Kilomet 4, đường 81, xã Sài Sơn, Huyện Quốc Oai, Thành phố Trung ương Hà Nội", "time active": "24/7 • Công cộng", "Brand": ": VinFast", "status": ": Đang hoạt động", "Power": ": VinFast ✧ 150kW, 60kW", "compatible": "VinFast" }, "geometry": { "type": "Point", "coordinates": [ 105.649391, 21.015404 ] } },
{ "type": "Feature", "properties": { "X": 105.72345, "Y": 21.016272, "Name": "Chung cư Splendora", "location": "Cột C1, hầm B1, chung cư Splendora, Đại lộ thăng long, xã An khánh, Huyện Hoài Đức, Thành phố Trung ương Hà Nội", "time active": "24/7 • Công cộng", "Brand": ": VinFast", "status": ": Đang hoạt động", "Power": ": VinFast ✧ 20kW, 3.5kW", "compatible": "VinFast" }, "geometry": { "type": "Point", "coordinates": [ 105.72345, 21.016272 ] } },